ID,BIN,CycloMedia,JobNumber,DocNum,Borough,HouseNum,Street,Block,Lot,JobType,JobStatus,JobStatusDesc,LatestActionDate,ApplicantFirstName,ApplicantLastName,ApplicantProfessionalTitle,ApplicantLicenseNum,ProfessionalCert,PreFilingDate,ProposedNumStories,X,Y,Lat,Long
123,4035037,"https://nycdob.github.io/CycloMedia/simple#1019958.63493547,215219.139821395",421727064,1,QUEENS,97-01,NORTHERN BOULEVARD,1427,38,NB,R,PERMIT ISSUED - ENTIRE JOB/WORK,6/10/2020,DAL,CHUN,PE,80675,N,2/13/2019,3,1019958.635,215219.1398,40.75733948,-73.87110901
185,4822692,"https://nycdob.github.io/CycloMedia/simple#1021243.26097514,209989.78741923",421860677,1,QUEENS,96-47,CORONA AVE,1621,17,NB,Q,PERMIT ISSUED - PARTIAL JOB,8/2/2021,XIONGCAI,GU,PE,88292,N,6/12/2019,3,1021243.261,209989.7874,40.74298096,-73.86650085
358,4623813,"https://nycdob.github.io/CycloMedia/simple#1020404.67931896,208083.085523978",421892367,1,QUEENS,92-27,55 AVE,1870,47,NB,R,PERMIT ISSUED - ENTIRE JOB/WORK,3/20/2020,XIONGCAI,GU,PE,88292,N,4/2/2019,3,1020404.679,208083.0855,40.73775101,-73.86953735
363,4622954,"https://nycdob.github.io/CycloMedia/simple#1040208.66628572,195488.628757566",420665541,1,QUEENS,92-27,160 STREET,10101,150,NB,R,PERMIT ISSUED - ENTIRE JOB/WORK,11/20/2020,DAVID,WEST,RA,20801,N,4/15/2019,24,1040208.666,195488.6288,40.70307922,-73.79817963
234,4188499,"https://nycdob.github.io/CycloMedia/simple#1026175.85904956,188395.769911811",421929097,1,QUEENS,91-15,101 AVENUE,9065,26,NB,Q,PERMIT ISSUED - PARTIAL JOB,7/23/2021,SION,HOURIZADEH,PE,74129,N,1/15/2019,3,1026175.859,188395.7699,40.683680303030492,-73.848833330452379
173,4619798,"https://nycdob.github.io/CycloMedia/simple#1019284.97749014,208944.516871974",421725556,1,QUEENS,90-20,50 AVENUE,1852,5,NB,R,PERMIT ISSUED - ENTIRE JOB/WORK,4/23/2021,XIAOHONG,ZHAO,PE,86301,N,2/19/2019,4,1019284.977,208944.5169,40.74011993,-73.8735733
165,4045690,"https://nycdob.github.io/CycloMedia/simple#1019282.80918738,208953.299662814",421931761,1,QUEENS,90-18,50 AVENUE,1852,4,NB,R,PERMIT ISSUED - ENTIRE JOB/WORK,4/23/2021,XIAOHONG,ZHAO,PE,86301,N,1/28/2019,4,1019282.809,208953.2997,40.740135735940278,-73.873579702329252
28,4623437,"https://nycdob.github.io/CycloMedia/simple#1037093.73911664,195980.595621392",420666149,1,QUEENS,88-14,SUTPHIN BLVD,9688,11,NB,R,PERMIT ISSUED - ENTIRE JOB/WORK,2/24/2021,SURESH,MANCHANDA,RA,18075,N,8/5/2019,5,1037093.739,195980.5956,40.7044487,-73.8094101
604,4148622,"https://nycdob.github.io/CycloMedia/simple#1037647.92140722,199926.172375888",420666620,1,QUEENS,83-15,PARSONS BOULEVARD,6862,331,NB,R,PERMIT ISSUED - ENTIRE JOB/WORK,3/9/2021,ROBERT,BIANCHINI,RA,33616,N,11/27/2019,4,1037647.921,199926.1724,40.715266715313646,-73.807378693855966
603,4623408,"https://nycdob.github.io/CycloMedia/simple#1016467.93883289,208033.067579389",420666595,1,QUEENS,79-17,51 AVENUE,2453,25,NB,R,PERMIT ISSUED - ENTIRE JOB/WORK,10/28/2020,YEVGENIY,MEKHTIYEV,RA,38063,N,11/22/2019,4,1016467.939,208033.0676,40.73762894,-73.88374329
245,3426555,"https://nycdob.github.io/CycloMedia/simple#993990.148814797,199412.09564814",321385951,1,BROOKLYN,74A,SOUTH 2ND STREET,2416,9,NB,R,PERMIT ISSUED - ENTIRE JOB/WORK,7/6/2021,MURAT,MUTLU,RA,36742,N,1/22/2019,4,993990.1488,199412.0956,40.71401148,-73.96486524
325,4617726,"https://nycdob.github.io/CycloMedia/simple#1012186.28893164,219235.258757651",421891974,1,QUEENS,69-03,DITMARS BLVD.,966,1,NB,R,PERMIT ISSUED - ENTIRE JOB/WORK,7/19/2021,JORGE,CHERRES,RA,35852,N,3/13/2019,3,1012186.289,219235.2588,40.76839066,-73.89914703
76,3341825,"https://nycdob.github.io/CycloMedia/simple#1004370.94432613,188981.019397482",321386442,1,BROOKLYN,687A,HANCOCK STREET,1657,59,NB,Q,PERMIT ISSUED - PARTIAL JOB,5/27/2021,GERALD,CALIENDO,RA,20241,N,2/27/2019,3,1004370.944,188981.0194,40.6853714,-73.92745209
482,4074432,"https://nycdob.github.io/CycloMedia/simple#1023462.24866314,200438.348844975",421934483,1,QUEENS,67-47,ALDERTON STREET,3150,22,NB,R,PERMIT ISSUED - ENTIRE JOB/WORK,4/15/2021,JAMES,CHENG,RA,25344,N,6/28/2019,3,1023462.249,200438.3488,40.716746761182740,-73.858547312798038
549,4073808,"https://nycdob.github.io/CycloMedia/simple#1022676.60817406,202039.20719181",421794348,1,QUEENS,65-11,DIETERLE CRESCENT,3131,28,NB,R,PERMIT ISSUED - ENTIRE JOB/WORK,3/17/2020,ALBERT,ARONOV,RA,30059,N,9/12/2019,3,1022676.608,202039.2072,40.721144174121768,-73.861372256824467
555,4623423,"https://nycdob.github.io/CycloMedia/simple#1049975.91348347,210158.98491548",421744143,1,QUEENS,64-72,213 STREET,7613,37,NB,R,PERMIT ISSUED - ENTIRE JOB/WORK,2/18/2021,DEZHANG,FANG,RA,37876,N,9/17/2019,3,1049975.913,210158.9849,40.7432785,-73.76280975
589,4162449,"https://nycdob.github.io/CycloMedia/simple#1051336.69717923,210920.184508562",421101186,1,QUEENS,64-29,218 STREET,7619,1,NB,R,PERMIT ISSUED - ENTIRE JOB/WORK,4/1/2021,ALEJANDRO,DIEZ,RA,15842,Y,10/30/2019,3,1051336.697,210920.1845,40.745349263315418,-73.757890047313353
467,4149003,"https://nycdob.github.io/CycloMedia/simple#1040208.24765138,207825.794043809",421885188,1,QUEENS,61-43,171 ST,6899,12,NB,R,PERMIT ISSUED - ENTIRE JOB/WORK,12/16/2020,XIONGCAI,GU,PE,88292,N,6/26/2019,3,1040208.248,207825.794,40.736933374831757,-73.798077222504716
468,4622947,"https://nycdob.github.io/CycloMedia/simple#1040224.61113572,207839.951167732",421886926,1,QUEENS,61-41,171 ST,6899,13,NB,R,PERMIT ISSUED - ENTIRE JOB/WORK,12/16/2020,XIONGCAI,GU,PE,88292,N,6/26/2019,3,1040224.611,207839.9512,40.73698044,-73.79801941
161,4622946,"https://nycdob.github.io/CycloMedia/simple#1040224.55995472,207862.18635948",421860668,1,QUEENS,61-39,171 ST,6899,14,NB,R,PERMIT ISSUED - ENTIRE JOB/WORK,12/16/2020,XIONGCAI,GU,PE,88292,N,6/26/2019,3,1040224.56,207862.1864,40.73704147,-73.79801941
258,4048009,"https://nycdob.github.io/CycloMedia/simple#1024092.11945064,208567.115395814",421724487,1,QUEENS,57-41,GRANGER ST,1951,10,NB,R,PERMIT ISSUED - ENTIRE JOB/WORK,3/2/2021,ANTHONY,NG,RA,24574,N,1/31/2019,5,1024092.119,208567.1154,40.739055399037632,-73.856227018012717
313,4619857,"https://nycdob.github.io/CycloMedia/simple#995136.794159308,208189.246072814",420665355,1,QUEENS,57-28,2ND STREET,6,20,NB,R,PERMIT ISSUED - ENTIRE JOB/WORK,2/8/2021,GARY,HANDEL,RA,16994,N,3/8/2019,33,995136.7942,208189.2461,40.73810959,-73.96071625
114,4047934,"https://nycdob.github.io/CycloMedia/simple#1023605.45113264,208327.643433809",421897647,1,QUEENS,57-14,XENIA STREET,1949,148,NB,R,PERMIT ISSUED - ENTIRE JOB/WORK,1/15/2021,GINO,LONGO,RA,24104,N,8/26/2019,4,1023605.451,208327.6434,40.738400287765067,-73.857984591435681
148,4047657,"https://nycdob.github.io/CycloMedia/simple#1023654.97859263,208843.665367648",421928472,1,QUEENS,55-12,102ND STREET,1939,49,NB,Q,PERMIT ISSUED - PARTIAL JOB,8/17/2021,ROBERT,LIN,PE,72792,N,5/1/2019,4,1023654.979,208843.6654,40.739816417561777,-73.857802847593746
255,4171464,"https://nycdob.github.io/CycloMedia/simple#1059669.20577663,218104.986411899",421723193,1,QUEENS,53-68,254 STREET,8253,72,NB,R,PERMIT ISSUED - ENTIRE JOB/WORK,1/30/2020,ARNOLD,MONTAG,RA,24564,N,1/29/2019,3,1059669.206,218104.9864,40.765002484009585,-73.727738353309860
279,4030883,"https://nycdob.github.io/CycloMedia/simple#1008648.65197806,210373.01795198",421719894,1,QUEENS,52-16,ROOSEVELT AVE,1321,59,NB,R,PERMIT ISSUED - ENTIRE JOB/WORK,1/23/2020,ANGELO,NG,RA,27024,N,2/14/2019,6,1008648.652,210373.018,40.744068237718089,-73.911949214731308
402,4623430,"https://nycdob.github.io/CycloMedia/simple#1055886.37968089,216096.354930475",421861872,1,QUEENS,52-06,DOUGLASTON PARKWAY,8174,35,NB,R,PERMIT ISSUED - ENTIRE JOB/WORK,7/30/2020,CHENG-SHENG,HUANG,PE,66720,N,5/14/2019,3,1055886.38,216096.3549,40.75952911,-73.74141693
69,4030855,"https://nycdob.github.io/CycloMedia/simple#1008369.79787697,210250.923379898",421929239,1,QUEENS,51-24,ROOSEVELT AVE,1320,27,NB,R,PERMIT ISSUED - ENTIRE JOB/WORK,2/3/2021,WU,CHEN,RA,29749,N,1/16/2019,7,1008369.798,210250.9234,40.743733883750124,-73.912955991210879
75,4623677,"https://nycdob.github.io/CycloMedia/simple#1005830.08314013,208998.319913983",421893473,1,QUEENS,47-58,43 STREET,175,27,NB,R,PERMIT ISSUED - ENTIRE JOB/WORK,7/28/2021,GAD,ASHOORI,PE,65961,N,2/13/2019,4,1005830.083,208998.3199,40.74031067,-73.92212677
440,4623447,"https://nycdob.github.io/CycloMedia/simple#1013158.23547855,208736.316500977",420665952,1,QUEENS,46-10,70TH STREET,2432,41,NB,Q,PERMIT ISSUED - PARTIAL JOB,4/20/2021,AVINASH,MALHOTRA,RA,13278,N,6/14/2019,12,1013158.235,208736.3165,40.73957062,-73.89568329
60,4615694,"https://nycdob.github.io/CycloMedia/simple#1027661.04702406,211559.792153224",421737044,1,QUEENS,46-01,111 STREET,2018,1,NB,R,PERMIT ISSUED - ENTIRE JOB/WORK,5/18/2021,MICHAEL,SZERBATY,RA,17767,N,8/9/2019,3,1027661.047,211559.7922,40.74726105,-73.84333038
119,4623857,"https://nycdob.github.io/CycloMedia/simple#999600.495205641,210796.17130515",420665104,1,QUEENS,45-25,DAVIS STREET,85,17,NB,R,PERMIT ISSUED - ENTIRE JOB/WORK,7/6/2021,JONATHAN,MARVEL,RA,21551,N,2/1/2019,24,999600.4952,210796.1713,40.74525833,-73.94460297
249,4623240,"https://nycdob.github.io/CycloMedia/simple#1006437.68133439,208735.246949315",421647613,1,QUEENS,45-07,48TH AVENUE,170,58,NB,R,PERMIT ISSUED - ENTIRE JOB/WORK,12/20/2019,CHRISTOPHER,PAPA,RA,29888,N,1/24/2019,4,1006437.681,208735.2469,40.739578789810686,-73.919933647518391
203,4805084,"https://nycdob.github.io/CycloMedia/simple#1008366.11382923,210020.832304642",420666611,1,QUEENS,43-30,52ND STREET,1320,45,NB,R,PERMIT ISSUED - ENTIRE JOB/WORK,8/12/2021,SHIMING,TAM,RA,18525,N,11/25/2019,5,1008366.114,210020.8323,40.74311066,-73.9129715
251,4037468,"https://nycdob.github.io/CycloMedia/simple#1017585.2354828,210424.146130562",421674600,1,QUEENS,42-41,JUDGE ST,1516,44,NB,R,PERMIT ISSUED - ENTIRE JOB/WORK,2/8/2021,LING,LI,RA,26687,N,1/25/2019,6,1017585.235,210424.1461,40.744179400608765,-73.879698313256029
556,4623008,"https://nycdob.github.io/CycloMedia/simple#1033547.6996208,215078.938002065",421914263,1,QUEENS,42-08,BOWNE STREET,5182,33,NB,R,PERMIT ISSUED - ENTIRE JOB/WORK,1/20/2021,CHANG HWA,TAN,RA,25376,N,9/17/2019,4,1033547.7,215078.938,40.75688934,-73.82205963
548,4623052,"https://nycdob.github.io/CycloMedia/simple#1009144.15459597,210277.712040231",421737231,1,QUEENS,41-60,55 ST,1323,21,NB,R,PERMIT ISSUED - ENTIRE JOB/WORK,1/12/2021,MEHDI,GHAZI,PE,96200,N,9/12/2019,3,1009144.155,210277.712,40.74380527,-73.91016138
53,4623051,"https://nycdob.github.io/CycloMedia/simple#1009187.55739631,210271.635608807",421737222,1,QUEENS,41-58,55 ST,1323,20,NB,R,PERMIT ISSUED - ENTIRE JOB/WORK,4/30/2021,MEHDI,GHAZI,PE,96200,N,9/12/2019,3,1009187.557,210271.6356,40.74378847,-73.91000477
13,4623383,"https://nycdob.github.io/CycloMedia/simple#1009164.98788764,210275.975823224",421737197,1,QUEENS,41-56,55 ST,1323,18,NB,R,PERMIT ISSUED - ENTIRE JOB/WORK,5/4/2021,MEHDI,GHAZI,PE,96200,N,9/12/2019,3,1009164.988,210275.9758,40.74380044,-73.9100862
383,4001768,"https://nycdob.github.io/CycloMedia/simple#1006345.69726638,211083.91154331",421738524,1,QUEENS,41-26,44 STREET,158,33,NB,R,PERMIT ISSUED - ENTIRE JOB/WORK,1/8/2020,WILSON,CHAO,RA,32231,N,4/25/2019,8,1006345.697,211083.9115,40.746025515723638,-73.920257865203027
436,4114888,"https://nycdob.github.io/CycloMedia/simple#1035693.53456797,216850.205128804",421936846,1,QUEENS,41-25,149 PLACE,5056,9,NB,R,PERMIT ISSUED - ENTIRE JOB/WORK,3/17/2021,FRANK,PETRUSO,RA,23981,N,6/13/2019,4,1035693.535,216850.2051,40.761730464991977,-73.814299273321993
235,4031430,"https://nycdob.github.io/CycloMedia/simple#1010909.11300831,210281.99648048",421645937,1,QUEENS,40-38,61 STREET,1335,67,NB,Q,PERMIT ISSUED - PARTIAL JOB,6/16/2021,HSIN,CHAO,PE,70181,N,1/15/2019,3,1010909.113,210281.9965,40.74382019,-73.90379333
513,4623283,"https://nycdob.github.io/CycloMedia/simple#1052497.29754831,220200.472706482",420666167,1,QUEENS,38-21,REGATTA PLACE,8059,47,NB,R,PERMIT ISSUED - ENTIRE JOB/WORK,3/10/2020,FRAN,HUANG,PE,83189,N,8/7/2019,3,1052497.298,220200.4727,40.77082062,-73.7536087
24,4004595,"https://nycdob.github.io/CycloMedia/simple#1003107.25918947,213805.162006304",421779285,1,QUEENS,38-03,31 STREET,382,15,NB,R,PERMIT ISSUED - ENTIRE JOB/WORK,8/13/2021,ANGELO,NG,RA,27024,N,12/18/2019,5,1003107.259,213805.162,40.753502158255920,-73.931937571146364
416,4044313,"https://nycdob.github.io/CycloMedia/simple#1022261.94889839,213104.969509065",421719395,1,QUEENS,37-74,104 ST,1769,44,NB,R,PERMIT ISSUED - ENTIRE JOB/WORK,9/23/2020,XIONGCAI,GU,PE,88292,N,6/3/2019,4,1022261.949,213104.9695,40.751518712112691,-73.862805654477938
415,4619909,"https://nycdob.github.io/CycloMedia/simple#1022251.06440572,213094.808112055",421723898,1,QUEENS,37-72,104 ST,1769,44,NB,R,PERMIT ISSUED - ENTIRE JOB/WORK,9/23/2020,XIONGCAI,GU,PE,88292,N,6/3/2019,4,1022251.064,213094.8081,40.75149918,-73.86284637
457,4004528,"https://nycdob.github.io/CycloMedia/simple#1002872.46635197,214244.994131893",420666014,1,QUEENS,37-28,30TH STREET,371,34,NB,R,PERMIT ISSUED - ENTIRE JOB/WORK,9/24/2020,ANGELO,COSTA,RA,16907,N,6/22/2019,7,1002872.466,214244.9941,40.754709883004807,-73.932783801949711
537,4623413,"https://nycdob.github.io/CycloMedia/simple#1022083.40332372,213521.219988897",421794080,1,QUEENS,37-28,104 STREET,1769,18,NB,R,PERMIT ISSUED - ENTIRE JOB/WORK,7/9/2021,FRANK,PETRUSO,RA,23981,N,8/30/2019,4,1022083.403,213521.22,40.75267029,-73.8634491
455,4004527,"https://nycdob.github.io/CycloMedia/simple#1002911.1998703,214294.256828651",420666023,1,QUEENS,37-24,30TH STREET,371,33,NB,R,PERMIT ISSUED - ENTIRE JOB/WORK,8/24/2020,ANGELO,COSTA,RA,16907,N,6/22/2019,7,1002911.2,214294.2568,40.754845014881475,-73.932643859963250
48,4029866,"https://nycdob.github.io/CycloMedia/simple#1014948.36903739,212043.825305894",421860258,1,QUEENS,37-18,77 STREET,1287,14,NB,R,PERMIT ISSUED - ENTIRE JOB/WORK,5/14/2021,ANTHONY,CUCICH,RA,13469,N,6/17/2019,3,1014948.369,212043.8253,40.748634556540708,-73.889206951104654
442,4029865,"https://nycdob.github.io/CycloMedia/simple#1014941.46682023,212069.946316645",421886971,1,QUEENS,37-16,77 STREET,1287,13,NB,R,PERMIT ISSUED - ENTIRE JOB/WORK,6/4/2021,ANTHONY,CUCICH,RA,13469,N,6/17/2019,3,1014941.467,212069.9463,40.748706276039428,-73.889231742562501
130,4623311,"https://nycdob.github.io/CycloMedia/simple#1043654.3329508,217218.27493073",421681004,1,QUEENS,37-10,FRANCIS LEWIS BLVD.,5321,18,NB,Q,PERMIT ISSUED - PARTIAL JOB,6/21/2021,GERALD,CALIENDO,RA,20241,N,2/5/2019,4,1043654.333,217218.2749,40.76269913,-73.78556061
129,4618843,"https://nycdob.github.io/CycloMedia/simple#1043572.02406031,217170.819645062",421680997,1,QUEENS,37-08,FRANCIS LEWIS BLVD.,5321,19,NB,Q,PERMIT ISSUED - PARTIAL JOB,6/21/2021,GERALD,CALIENDO,RA,20241,N,2/5/2019,4,1043572.024,217170.8196,40.76256943,-73.78585815
177,4618636,"https://nycdob.github.io/CycloMedia/simple#1043546.53460997,217222.179450482",421681772,1,QUEENS,37-06,FRANCIS LEWIS BLVD.,5321,20,NB,Q,PERMIT ISSUED - PARTIAL JOB,7/26/2021,GERALD,CALIENDO,RA,20241,N,2/5/2019,4,1043546.535,217222.1795,40.76271057,-73.78594971
176,4618634,"https://nycdob.github.io/CycloMedia/simple#1043624.61844331,217269.624237478",421672755,1,QUEENS,37-02,FRANCIS LEWIS BLVD.,5321,22,NB,Q,PERMIT ISSUED - PARTIAL JOB,7/26/2021,GERALD,CALIENDO,RA,20241,N,2/4/2019,4,1043624.618,217269.6242,40.76284027,-73.78566742
162,4623835,"https://nycdob.github.io/CycloMedia/simple#1003521.28099923,214436.118421555",421797611,1,QUEENS,36-45,31ST STREET,600,8,NB,R,PERMIT ISSUED - ENTIRE JOB/WORK,5/7/2021,JOHN,SENISI,RA,20640,N,8/29/2019,6,1003521.281,214436.1184,40.75524139,-73.93044281
217,4008022,"https://nycdob.github.io/CycloMedia/simple#1004031.48962447,215046.213658065",421719028,1,QUEENS,35-36,32ND STREET,604,39,NB,Q,PERMIT ISSUED - PARTIAL JOB,8/28/2020,VICTOR,FILLETTI,RA,29297,N,1/2/2019,4,1004031.49,215046.2137,40.756906508845148,-73.928598051206819
285,4543421,"https://nycdob.github.io/CycloMedia/simple#1003065.80520414,213029.266576484",421662016,1,QUEENS,31-28,NORTHERN BLVD,239,111,NB,R,PERMIT ISSUED - ENTIRE JOB/WORK,10/6/2020,CHRISTOPHER,TARTAGLIA,PE,78209,N,2/19/2019,12,1003065.805,213029.2666,40.75138092,-73.93209076
150,4007117,"https://nycdob.github.io/CycloMedia/simple#1004806.02383655,217848.683118731",421921308,1,QUEENS,31-22,29TH STREET,579,68,NB,R,PERMIT ISSUED - ENTIRE JOB/WORK,6/30/2021,VICTOR,FILLETTI,RA,29297,N,6/6/2019,7,1004806.024,217848.6831,40.764596798844650,-73.925793776130149
257,4003414,"https://nycdob.github.io/CycloMedia/simple#1002841.42507547,213083.538777649",420665060,1,QUEENS,31-08,NORTHERN BLVD,239,105,NB,R,PERMIT ISSUED - ENTIRE JOB/WORK,6/10/2021,MARK,DEAN,RA,23853,N,1/30/2019,9,1002841.425,213083.5388,40.751522048806372,-73.932899054010605
254,4623081,"https://nycdob.github.io/CycloMedia/simple#1003682.46604431,219037.942223147",421723647,1,QUEENS,30-88,21ST STREET,534,55,NB,R,PERMIT ISSUED - ENTIRE JOB/WORK,7/7/2020,JOSEPH,SULTANA,RA,27357,N,1/29/2019,6,1003682.466,219037.9422,40.76787186,-73.92984772
112,4006713,"https://nycdob.github.io/CycloMedia/simple#1004651.28759748,218541.594790637",421950366,1,QUEENS,30-82,CRESCENT STREET,570,49,NB,R,PERMIT ISSUED - ENTIRE JOB/WORK,1/9/2020,ANGELO,COSTA,RA,16907,N,5/17/2019,7,1004651.288,218541.5948,40.766499019993397,-73.926350262894971
453,4623415,"https://nycdob.github.io/CycloMedia/simple#1006100.90477698,218164.412146062",421730693,1,QUEENS,30-37,32 ST,616,23,NB,R,PERMIT ISSUED - ENTIRE JOB/WORK,1/11/2021,HARRIET,NIKAKIS,RA,30899,N,6/21/2019,5,1006100.905,218164.4121,40.7654686,-73.92111969
10,4623074,"https://nycdob.github.io/CycloMedia/simple#1002308.80245306,213356.689149976",420666032,1,QUEENS,29-17,40TH AVENUE,399,34,NB,R,PERMIT ISSUED - ENTIRE JOB/WORK,7/23/2021,CHRISTOPHER,FOGARTY,RA,28860,N,6/24/2019,10,1002308.802,213356.6891,40.75228119,-73.93482208
386,4006900,"https://nycdob.github.io/CycloMedia/simple#1005511.01914573,219509.476713151",421858430,1,QUEENS,27-23,27TH STREET,575,37,NB,Q,PERMIT ISSUED - PARTIAL JOB,8/23/2021,GERALD,CALIENDO,RA,20241,N,4/26/2019,4,1005511.019,219509.4767,40.769153577890499,-73.923243525990628
182,4004807,"https://nycdob.github.io/CycloMedia/simple#1002049.53164613,213962.024881557",421723638,1,QUEENS,27-14,39TH AVENUE,397,17,NB,R,PERMIT ISSUED - ENTIRE JOB/WORK,2/23/2021,JOSEPH,SULTANA,RA,27357,N,1/29/2019,4,1002049.532,213962.0249,40.753934899418660,-73.935754862306055
432,4623406,"https://nycdob.github.io/CycloMedia/simple#1002593.09256689,214781.464187562",421922478,1,QUEENS,27-10,37 AVE,369,14,NB,R,PERMIT ISSUED - ENTIRE JOB/WORK,11/25/2020,GERALD,CALIENDO,RA,20241,N,6/12/2019,6,1002593.093,214781.4642,40.75619125,-73.93379211
4,4596932,"https://nycdob.github.io/CycloMedia/simple#1000568.08939905,211751.607714474",420665667,1,QUEENS,27-01,JACKSON AVENUE,432,21,NB,Q,PERMIT ISSUED - PARTIAL JOB,6/29/2021,LUIGI,RUSSO,RA,20741,N,4/24/2019,27,1000568.089,211751.6077,40.74787903,-73.9411087
493,4622945,"https://nycdob.github.io/CycloMedia/simple#1002594.13751231,221783.382270306",421948600,1,QUEENS,26-31,3 STREET,910,7,NB,R,PERMIT ISSUED - ENTIRE JOB/WORK,12/2/2020,BARRY,BANK,PE,48991,N,7/11/2019,6,1002594.138,221783.3823,40.7754097,-73.93376923
376,4623596,"https://nycdob.github.io/CycloMedia/simple#1002680.72821839,221845.989100471",420665499,1,QUEENS,26-24,4 STREET,910,9,NB,R,PERMIT ISSUED - ENTIRE JOB/WORK,1/8/2021,CHARLES,MALLEA,RA,20506,N,4/12/2019,7,1002680.728,221845.9891,40.77558136,-73.93345642
620,4019090,"https://nycdob.github.io/CycloMedia/simple#1005607.86868955,221081.185840055",421780905,1,QUEENS,25-13,23 ST,872,39,NB,R,PERMIT ISSUED - ENTIRE JOB/WORK,8/13/2021,EMANUEL,KAMBANIS,RA,28318,N,12/20/2019,4,1005607.869,221081.1858,40.773467274247146,-73.922888885276464
253,4171185,"https://nycdob.github.io/CycloMedia/simple#1058459.74198823,216940.371287063",421721756,1,QUEENS,249-20,THORNHILL AVENUE,8240,22,NB,R,PERMIT ISSUED - ENTIRE JOB/WORK,5/19/2020,FRANK,PETRUSO,RA,23981,Y,1/29/2019,3,1058459.742,216940.3713,40.761816165670155,-73.732117320106951
490,4006730,"https://nycdob.github.io/CycloMedia/simple#1004545.48400331,218840.398654982",421732959,1,QUEENS,23-29,30TH DRIVE,571,10,NB,R,PERMIT ISSUED - ENTIRE JOB/WORK,10/21/2020,GERALD,CALIENDO,RA,20241,N,7/3/2019,5,1004545.484,218840.3987,40.767319402425343,-73.926731317086620
93,4000708,"https://nycdob.github.io/CycloMedia/simple#999497.932746723,210990.968815804",420665275,1,QUEENS,23-20,JACKSON AVENUE,85,5,NB,R,PERMIT ISSUED - ENTIRE JOB/WORK,7/24/2020,ARMAND,QUADRINI,RA,22313,N,3/1/2019,9,999497.9327,210990.9688,40.745784869940877,-73.944971266856101
507,4099500,"https://nycdob.github.io/CycloMedia/simple#1026825.45158239,223272.823845223",421743858,1,QUEENS,22-24,COLLEGE POINT BOULEVARD,4197,31,NB,R,PERMIT ISSUED - ENTIRE JOB/WORK,10/26/2020,CHANG HWA,TAN,RA,25376,N,7/26/2019,3,1026825.452,223272.8238,40.779406005364237,-73.846270494302644
423,4619619,"https://nycdob.github.io/CycloMedia/simple#1051465.74022822,213438.873696893",421101319,1,QUEENS,221-15,58TH AVENUE,7529,1,NB,R,PERMIT ISSUED - ENTIRE JOB/WORK,4/2/2021,REMI,CHIAN,RA,20772,Y,6/6/2019,3,1051465.74,213438.8737,40.75226974,-73.75740051
219,4615182,"https://nycdob.github.io/CycloMedia/simple#1055241.64901496,191608.162437141",421717440,1,QUEENS,218-06,119 AVENUE,12778,111,NB,R,PERMIT ISSUED - ENTIRE JOB/WORK,6/24/2020,AKEEB,SHEKONI,RA,28575,N,1/4/2019,3,1055241.649,191608.1624,40.692312148746872,-73.744001180749876
73,4622952,"https://nycdob.github.io/CycloMedia/simple#1045616.64234638,224350.182254806",421102327,1,QUEENS,212-03,23 AVENUE,5865,50,NB,Q,PERMIT ISSUED - PARTIAL JOB,5/26/2021,GAVIN,MACRAE-GIBSON,RA,17853,Y,6/27/2019,5,1045616.642,224350.1823,40.78226089,-73.77841187
260,4021375,"https://nycdob.github.io/CycloMedia/simple#1013573.75531681,219867.510117814",421100383,1,QUEENS,21-15,75 STREET,971,1,NB,R,PERMIT ISSUED - ENTIRE JOB/WORK,3/31/2021,ROLANDO,KENNY,RA,24506,Y,1/31/2019,3,1013573.755,219867.5101,40.770113217493808,-73.894133919903268
218,4121028,"https://nycdob.github.io/CycloMedia/simple#1041944.82619922,215510.558529899",421719778,1,QUEENS,189-01,NORTHERN BLVD,5365,1,NB,R,PERMIT ISSUED - ENTIRE JOB/WORK,3/18/2020,SUK HWAN,KIM,PE,89081,N,1/3/2019,3,1041944.826,215510.5585,40.758014904425025,-73.791744955577869
47,4223680,"https://nycdob.github.io/CycloMedia/simple#1047115.32898155,200026.43825148",420666087,1,QUEENS,188-11,HILLSIDE AVENUE,10499,92,NB,R,PERMIT ISSUED - ENTIRE JOB/WORK,7/9/2021,VICTOR,MIRONTSCHUK,RA,19338,N,7/5/2019,7,1047115.329,200026.4383,40.715479713548511,-73.773226299361369
18,4623392,"https://nycdob.github.io/CycloMedia/simple#1006826.20516364,224545.748792812",420666274,1,QUEENS,18-11,21 DRIVE,896,205,NB,R,PERMIT ISSUED - ENTIRE JOB/WORK,5/5/2021,NICKOLAS,KAZALAS,RA,30561,N,9/25/2019,3,1006826.205,224545.7488,40.78298187,-73.91847992
63,4217664,"https://nycdob.github.io/CycloMedia/simple#1043540.90338764,196549.461609647",421862746,1,QUEENS,172-30,93RD AVENUE,10219,32,NB,R,PERMIT ISSUED - ENTIRE JOB/WORK,5/20/2021,ANGELO,NG,RA,27024,N,5/14/2019,4,1043540.903,196549.4616,40.705960943606065,-73.786150868847059
34,4210575,"https://nycdob.github.io/CycloMedia/simple#1041898.16093822,198642.212345392",420665177,1,QUEENS,170-22,CEDARCROFT RD,9844,17,NB,R,PERMIT ISSUED - ENTIRE JOB/WORK,5/10/2021,ROBERT,BIANCHINI,RA,33616,N,2/11/2019,4,1041898.161,198642.2123,40.711715887659039,-73.792057935803427
357,4623389,"https://nycdob.github.io/CycloMedia/simple#1038076.87921073,204792.78567414",421883359,1,QUEENS,163-11,72ND AVENUE,6802,5,NB,R,PERMIT ISSUED - ENTIRE JOB/WORK,3/10/2021,ANTHONY,NG,RA,24574,N,4/2/2019,5,1038076.879,204792.7857,40.72863007,-73.80579376
374,4114099,"https://nycdob.github.io/CycloMedia/simple#1036029.22845039,217615.29152514",421895863,1,QUEENS,150-36,ROOSEVELT AVE,5034,32,NB,R,PERMIT ISSUED - ENTIRE JOB/WORK,7/16/2021,BRIAN,ILL,RA,20822,N,4/11/2019,3,1036029.228,217615.2915,40.763828465749768,-73.813081596911402
404,4623532,"https://nycdob.github.io/CycloMedia/simple#1036145.44672188,217041.225416064",421949734,1,QUEENS,150-23,BARCLAY AVENUE,5058,1,NB,R,PERMIT ISSUED - ENTIRE JOB/WORK,3/10/2021,CHANG HWA,TAN,RA,25376,N,5/17/2019,5,1036145.447,217041.2254,40.76226044,-73.81266785
420,4852122,"https://nycdob.github.io/CycloMedia/simple#1034995.33091189,229338.75200206",421937514,1,QUEENS,150-112,POWELLS COVE BLVD,4509,37,NB,R,PERMIT ISSUED - ENTIRE JOB/WORK,1/16/2020,FRANK,PETRUSO,RA,23981,Y,6/4/2019,3,1034995.331,229338.752,40.79602051,-73.81672668
481,4623002,"https://nycdob.github.io/CycloMedia/simple#1036066.40291671,216447.600947142",421950455,1,QUEENS,149-56,SANFORD AVENUE,5382,10,NB,R,PERMIT ISSUED - ENTIRE JOB/WORK,7/17/2020,MEHDI,GHAZI,PE,96200,N,6/28/2019,3,1036066.403,216447.6009,40.76063156,-73.81295776
174,4121426,"https://nycdob.github.io/CycloMedia/simple#1036050.89605798,216453.875540897",421950482,1,QUEENS,149-54,SANFORD AVE,5382,9,NB,R,PERMIT ISSUED - ENTIRE JOB/WORK,7/17/2020,MEHDI,GHAZI,PE,96200,N,6/28/2019,3,1036050.896,216453.8755,40.760640557925640,-73.813012328668947
421,4214599,"https://nycdob.github.io/CycloMedia/simple#1038307.71995638,193382.300949231",421920595,1,QUEENS,147-16,97 AVE,10031,7,NB,R,PERMIT ISSUED - ENTIRE JOB/WORK,1/31/2020,MANISH,SAVANI,RA,29410,N,6/6/2019,8,1038307.72,193382.3009,40.697301369663144,-73.805051157376681
54,4144537,"https://nycdob.github.io/CycloMedia/simple#1034948.10922155,202542.065438062",421893213,1,QUEENS,147-02,76 RD,6686,1,NB,R,PERMIT ISSUED - ENTIRE JOB/WORK,7/12/2021,ROBERT,BAHARY,RA,29606,N,2/20/2019,3,1034948.109,202542.0654,40.722462580041586,-73.817097943158799
629,4623221,"https://nycdob.github.io/CycloMedia/simple#1034738.9807028,215199.750096396",421939629,1,QUEENS,146-07,CHERRY AVENUE,5376,36,NB,R,PERMIT ISSUED - ENTIRE JOB/WORK,6/16/2021,MEHDI,GHAZI,PE,96200,N,12/31/2019,3,1034738.981,215199.7501,40.7572059,-73.8177574
628,4623416,"https://nycdob.github.io/CycloMedia/simple#1034760.68210298,215209.298633724",421939488,1,QUEENS,146-05,CHERRY AVE,5376,1,NB,R,PERMIT ISSUED - ENTIRE JOB/WORK,9/16/2020,MEHDI,GHAZI,PE,96200,N,12/31/2019,3,1034760.682,215209.2986,40.75723199,-73.817679
624,4542635,"https://nycdob.github.io/CycloMedia/simple#1038131.54806463,191585.515828893",421942269,1,QUEENS,145-18,106 AVENUE,10048,7,NB,R,PERMIT ISSUED - ENTIRE JOB/WORK,3/1/2021,BAKHTIAR,SHAMLOO,PE,70154,N,12/23/2019,3,1038131.548,191585.5158,40.6923707,-73.80570086
625,4541419,"https://nycdob.github.io/CycloMedia/simple#1038115.05498739,191602.008906141",421940467,1,QUEENS,145-16,106TH AVENUE,10048,6,NB,R,PERMIT ISSUED - ENTIRE JOB/WORK,3/1/2021,BAKHTIAR,SHAMLOO,PE,70154,N,12/23/2019,3,1038115.055,191602.0089,40.69241607,-73.8057602
181,4213952,"https://nycdob.github.io/CycloMedia/simple#1037416.01176606,193747.937028974",421949574,1,QUEENS,144-02,94TH AVENUE,9993,1,NB,R,PERMIT ISSUED - ENTIRE JOB/WORK,8/11/2021,MICHAEL,KANG,RA,24849,N,3/28/2019,15,1037416.012,193747.937,40.698310355225189,-73.808264036114778
138,4443459,"https://nycdob.github.io/CycloMedia/simple#1033268.04926147,216150.553312898",421721916,1,QUEENS,143-16,41 AVENUE,5048,13,NB,R,PERMIT ISSUED - ENTIRE JOB/WORK,6/23/2021,CHANG HWA,TAN,RA,25376,N,1/9/2019,8,1033268.049,216150.5533,40.759823884639722,-73.823059860494141
229,4442233,"https://nycdob.github.io/CycloMedia/simple#1036484.97163339,195111.496637806",421722210,1,QUEENS,143-02,JAMAICA AVE,9983,1,NB,R,PERMIT ISSUED - ENTIRE JOB/WORK,6/7/2021,GERALD,CALIENDO,RA,20241,N,1/11/2019,4,1036484.972,195111.4966,40.702058543541789,-73.811611119145581
464,4100873,"https://nycdob.github.io/CycloMedia/simple#1031804.87994371,219405.703298643",421935464,1,QUEENS,140-05,32 AVE,4414,98,NB,Q,PERMIT ISSUED - PARTIAL JOB,1/13/2021,XIAOHONG,ZHAO,PE,86301,N,6/26/2019,4,1031804.88,219405.7033,40.768766405236839,-73.828318410758598
465,4100874,"https://nycdob.github.io/CycloMedia/simple#1031781.73989813,219403.778105646",421738506,1,QUEENS,140-03,32 AVE,4414,99,NB,Q,PERMIT ISSUED - PARTIAL JOB,1/13/2021,XIAOHONG,ZHAO,PE,86301,N,6/26/2019,4,1031781.74,219403.7781,40.768761245541882,-73.828401963847355
85,4114943,"https://nycdob.github.io/CycloMedia/simple#1030196.23880406,215061.668351561",421744125,1,QUEENS,131-78,40TH ROAD,5060,38,NB,R,PERMIT ISSUED - ENTIRE JOB/WORK,6/1/2021,MICHAEL,KANG,RA,24849,N,7/26/2019,9,1030196.239,215061.6684,40.756851676187196,-73.834155569240878
152,4204962,"https://nycdob.github.io/CycloMedia/simple#1035552.52861638,190557.031993479",420665426,1,QUEENS,130-10,LIBERTY AVE,9590,4,NB,Q,PERMIT ISSUED - PARTIAL JOB,8/24/2021,JULIO,LEDER-LUIS,RA,20478,N,4/3/2019,4,1035552.529,190557.032,40.68957138,-73.81501007
57,4619865,"https://nycdob.github.io/CycloMedia/simple#1053256.30882555,191805.83559823",421883545,1,QUEENS,118-22,201 STREET,12629,17,NB,Q,PERMIT ISSUED - PARTIAL JOB,5/18/2021,JUNG,SHIN,PE,50090,N,5/8/2019,3,1053256.309,191805.8356,40.69287872,-73.75115967
332,4431610,"https://nycdob.github.io/CycloMedia/simple#1024029.73374864,213151.249600232",421950302,1,QUEENS,108-69,ROOSEVELT AVENUE,1780,52,NB,R,PERMIT ISSUED - ENTIRE JOB/WORK,6/29/2020,MICHAEL,KANG,RA,24849,N,3/15/2019,4,1024029.734,213151.2496,40.751637963011696,-73.856425027472397
530,4619736,"https://nycdob.github.io/CycloMedia/simple#1024117.75227338,212999.122935981",421797309,1,QUEENS,108-68,ROOSEVELT AVENUE,1996,39,NB,R,PERMIT ISSUED - ENTIRE JOB/WORK,7/16/2020,MICHAEL,KANG,RA,24849,N,8/29/2019,4,1024117.752,212999.1229,40.75122833,-73.85610962
323,4619683,"https://nycdob.github.io/CycloMedia/simple#1024003.33944447,213160.156406567",421950311,1,QUEENS,108-67,ROOSEVELT AVENUE,1780,53,NB,R,PERMIT ISSUED - ENTIRE JOB/WORK,4/10/2020,MICHAEL,KANG,RA,24849,N,3/15/2019,4,1024003.339,213160.1564,40.75167084,-73.85652161
331,4619684,"https://nycdob.github.io/CycloMedia/simple#1023986.43691923,213155.956939891",421950026,1,QUEENS,108-65,ROOSEVELT AVENUE,1780,54,NB,R,PERMIT ISSUED - ENTIRE JOB/WORK,4/10/2020,MICHAEL,KANG,RA,24849,N,3/15/2019,4,1023986.437,213155.9569,40.75165939,-73.85658264
333,4619685,"https://nycdob.github.io/CycloMedia/simple#1023963.20369796,213144.803090811",421950035,1,QUEENS,108-63,ROOSEVELT AVENUE,1780,55,NB,R,PERMIT ISSUED - ENTIRE JOB/WORK,4/10/2020,MICHAEL,KANG,RA,24849,N,3/15/2019,4,1023963.204,213144.8031,40.75162888,-73.85666656
328,4619682,"https://nycdob.github.io/CycloMedia/simple#1023956.86184713,213144.792920232",421890895,1,QUEENS,108-61,ROOSEVELT AVENUE,1780,56,NB,R,PERMIT ISSUED - ENTIRE JOB/WORK,4/10/2020,MICHAEL,KANG,RA,24849,N,3/15/2019,4,1023956.862,213144.7929,40.75162888,-73.85668945
529,4619693,"https://nycdob.github.io/CycloMedia/simple#1023991.00383922,212948.881238565",421797318,1,QUEENS,108-60,ROOSEVELT AVENUE,1996,34,NB,R,PERMIT ISSUED - ENTIRE JOB/WORK,7/16/2020,MICHAEL,KANG,RA,24849,N,8/29/2019,4,1023991.004,212948.8812,40.751091,-73.85656738
322,4044831,"https://nycdob.github.io/CycloMedia/simple#1023937.00001022,213124.896962643",421890902,1,QUEENS,108-59,ROOSEVELT AVENUE,1780,58,NB,R,PERMIT ISSUED - ENTIRE JOB/WORK,4/10/2020,MICHAEL,KANG,RA,24849,N,3/15/2019,4,1023937,213124.897,40.751566048482559,-73.856759881577275
37,4619692,"https://nycdob.github.io/CycloMedia/simple#1023999.45264122,212951.67519623",421797327,1,QUEENS,108-58,ROOSEVELT AVENUE,1996,33,NB,R,PERMIT ISSUED - ENTIRE JOB/WORK,5/10/2021,MICHAEL,KANG,RA,24849,N,8/29/2019,4,1023999.453,212951.6752,40.75109863,-73.85653687
317,4619681,"https://nycdob.github.io/CycloMedia/simple#1023920.95575097,213126.663035229",421950142,1,QUEENS,108-57,ROOSEVELT AVENUE,1780,58,NB,R,PERMIT ISSUED - ENTIRE JOB/WORK,4/10/2020,MICHAEL,KANG,RA,24849,N,3/15/2019,4,1023920.956,213126.663,40.75157928,-73.85681915
321,4619680,"https://nycdob.github.io/CycloMedia/simple#1023874.47979406,213108.520026892",421950133,1,QUEENS,108-55,ROOSEVELT AVENUE,1780,59,NB,R,PERMIT ISSUED - ENTIRE JOB/WORK,4/10/2020,MICHAEL,KANG,RA,24849,N,3/15/2019,4,1023874.48,213108.52,40.75152969,-73.856987
531,4619691,"https://nycdob.github.io/CycloMedia/simple#1023923.4039088,212922.36390315",421797336,1,QUEENS,108-54,ROOSEVELT AVENUE,1996,31,NB,R,PERMIT ISSUED - ENTIRE JOB/WORK,5/10/2021,MICHAEL,KANG,RA,24849,N,8/29/2019,4,1023923.404,212922.3639,40.75101852,-73.85681152
318,4044832,"https://nycdob.github.io/CycloMedia/simple#1023843.20853114,213082.615879223",421950124,1,QUEENS,108-53,ROOSEVELT AVENUE,1780,61,NB,R,PERMIT ISSUED - ENTIRE JOB/WORK,4/10/2020,MICHAEL,KANG,RA,24849,N,3/15/2019,4,1023843.209,213082.6159,40.751450418218191,-73.857098646379086
528,4619690,"https://nycdob.github.io/CycloMedia/simple#1023946.63713005,212933.521361142",421797345,1,QUEENS,108-52,ROOSEVELT AVENUE,1996,30,NB,R,PERMIT ISSUED - ENTIRE JOB/WORK,7/16/2020,MICHAEL,KANG,RA,24849,N,8/29/2019,4,1023946.637,212933.5214,40.75104904,-73.8567276
190,4623869,"https://nycdob.github.io/CycloMedia/simple#1023921.2897398,212922.360622317",421797354,1,QUEENS,108-50,ROOSEVELT AVEUE,1996,29,NB,R,PERMIT ISSUED - ENTIRE JOB/WORK,7/15/2020,MICHAEL,KANG,RA,24849,N,8/29/2019,4,1023921.29,212922.3606,40.75101852,-73.85681915
527,4619689,"https://nycdob.github.io/CycloMedia/simple#1023893.82588397,212912.588004068",421797363,1,QUEENS,108-48,ROOSEVELT AVENUE,1996,28,NB,R,PERMIT ISSUED - ENTIRE JOB/WORK,7/16/2020,MICHAEL,KANG,RA,24849,N,8/29/2019,4,1023893.826,212912.588,40.75099182,-73.85691833
525,4619688,"https://nycdob.github.io/CycloMedia/simple#1023868.47586906,212901.427265227",421797372,1,QUEENS,108-46,ROOSEVELT AVENUE,1996,27,NB,R,PERMIT ISSUED - ENTIRE JOB/WORK,7/16/2020,MICHAEL,KANG,RA,24849,N,8/29/2019,4,1023868.476,212901.4273,40.7509613,-73.85700989
522,4619687,"https://nycdob.github.io/CycloMedia/simple#1023843.12815072,212890.270135313",421797381,1,QUEENS,108-42,ROOSEVELT AVENUE,1996,26,NB,R,PERMIT ISSUED - ENTIRE JOB/WORK,7/15/2020,MICHAEL,KANG,RA,24849,N,8/29/2019,4,1023843.128,212890.2701,40.75093079,-73.85710144
526,4307718,"https://nycdob.github.io/CycloMedia/simple#1023822.9415113,212883.287537724",421797390,1,QUEENS,108-40,ROOSEVELT AVENUE,1996,25,NB,R,PERMIT ISSUED - ENTIRE JOB/WORK,7/16/2020,MICHAEL,KANG,RA,24849,N,8/29/2019,4,1023822.942,212883.2875,40.750903403760418,-73.857172967785587
532,4853911,"https://nycdob.github.io/CycloMedia/simple#1023062.43548639,214633.23023206",421743108,1,QUEENS,108-15,35 AVE,1750,24,NB,R,PERMIT ISSUED - ENTIRE JOB/WORK,8/19/2020,MEHDI,GHAZI,PE,96200,N,8/29/2019,3,1023062.435,214633.2302,40.75571823,-73.85990906
216,4623150,"https://nycdob.github.io/CycloMedia/simple#1023458.05739856,211795.856641725",420664980,1,QUEENS,104-55,44 AVE,1987,45,NB,Q,PERMIT ISSUED - PARTIAL JOB,8/23/2021,ROBERT,LIN,PE,72792,N,1/11/2019,3,1023458.057,211795.8566,40.74792862,-73.85849762
521,4049087,"https://nycdob.github.io/CycloMedia/simple#1023380.05624223,210930.977794066",421727901,1,QUEENS,104-13,48 AVENUE,1991,84,NB,R,PERMIT ISSUED - ENTIRE JOB/WORK,2/26/2021,GINO,LONGO,RA,24104,N,8/26/2019,3,1023380.056,210930.9778,40.745546782682787,-73.858782790133120
209,4303810,"https://nycdob.github.io/CycloMedia/simple#1033659.37492239,151755.451788396",421728973,1,QUEENS,101-19,ROCKAWAY BEACH BLVD,16174,23,NB,R,PERMIT ISSUED - ENTIRE JOB/WORK,8/19/2021,THOMAS,SCIBLIA,RA,34774,N,6/24/2019,3,1033659.375,151755.4518,40.58308029,-73.82212067
429,4096247,"https://nycdob.github.io/CycloMedia/simple#1026631.51988363,227296.325640723",421860999,1,QUEENS,44394,COLLEGE PLACE,3942,4,NB,R,PERMIT ISSUED - ENTIRE JOB/WORK,8/5/2020,DEZHANG,FANG,RA,37876,N,6/10/2019,3,1026631.52,227296.3256,40.79045868,-73.84694672
430,4622924,"https://nycdob.github.io/CycloMedia/simple#1026627.27481338,227307.437823221",421738114,1,QUEENS,44392,COLLEGE PLACE,3942,5,NB,R,PERMIT ISSUED - ENTIRE JOB/WORK,8/5/2020,DEZHANG,FANG,RA,37876,N,6/10/2019,3,1026627.275,227307.4378,40.7904892,-73.84696198
312,4619856,"https://nycdob.github.io/CycloMedia/simple#995011.862650633,208618.642523721",420665346,1,QUEENS,44211,57 AVENUE,6,30,NB,R,PERMIT ISSUED - ENTIRE JOB/WORK,2/8/2021,GARY,HANDEL,RA,16994,N,3/8/2019,57,995011.8627,208618.6425,40.73928833,-73.96116638
35,4618514,"https://nycdob.github.io/CycloMedia/simple#1009293.43120031,194373.875409648",421928953,1,QUEENS,18323,ST NICHOLAS AVENUE,3445,27,NB,R,PERMIT ISSUED - ENTIRE JOB/WORK,8/25/2021,SITAL,PATEL,RA,28571,N,1/29/2019,17,1009293.431,194373.8754,40.70016098,-73.90968323
14,3253461,"https://nycdob.github.io/CycloMedia/simple#974271.647241384,162698.709757477",322015412,1,BROOKLYN,9964,3RD AVE,6133,60,NB,R,PERMIT ISSUED - ENTIRE JOB/WORK,5/11/2021,IGOR,ZASLAVSKIY,RA,30655,N,12/19/2019,8,974271.6472,162698.7098,40.613241120258465,-74.035939681091563
188,3428832,"https://nycdob.github.io/CycloMedia/simple#974288.347995386,162760.340211645",322020406,1,BROOKLYN,9956,3RD AVENUE,6133,57,NB,R,PERMIT ISSUED - ENTIRE JOB/WORK,8/24/2020,HARRY,SIMINO,RA,20654,N,12/31/2019,8,974288.348,162760.3402,40.61341858,-74.03588104
221,3154221,"https://nycdob.github.io/CycloMedia/simple#976476.589025721,165059.606610477",321385620,1,BROOKLYN,8902,5TH AVENUE,6066,26,NB,R,PERMIT ISSUED - ENTIRE JOB/WORK,8/5/2020,HENRY,RADUSKY,RA,15029,N,1/8/2019,6,976476.589,165059.6066,40.619723501411379,-74.028000717838836
350,3166519,"https://nycdob.github.io/CycloMedia/simple#982710.359366551,160425.419028476",321938668,1,BROOKLYN,8664,BAY 16TH STREET,6366,72,NB,R,PERMIT ISSUED - ENTIRE JOB/WORK,2/19/2020,HENRY,RADUSKY,RA,15029,N,3/28/2019,3,982710.3594,160425.419,40.607006888897459,-74.005544905660770
340,3426802,"https://nycdob.github.io/CycloMedia/simple#982701.815748468,160445.731651887",321938659,1,BROOKLYN,8662,BAY 16TH STREET,6366,71,NB,R,PERMIT ISSUED - ENTIRE JOB/WORK,2/19/2020,HENRY,RADUSKY,RA,15029,N,3/28/2019,3,982701.8157,160445.7317,40.60707092,-74.00557709
349,3426801,"https://nycdob.github.io/CycloMedia/simple#982710.291453302,160463.798216805",321938640,1,BROOKLYN,8660,BAY 16TH STREET,6366,70,NB,R,PERMIT ISSUED - ENTIRE JOB/WORK,2/19/2020,HENRY,RADUSKY,RA,15029,N,3/28/2019,3,982710.2915,160463.7982,40.60712051,-74.00554657
348,3166518,"https://nycdob.github.io/CycloMedia/simple#982730.502698973,160470.19846648",321938631,1,BROOKLYN,8658,BAY 16TH STREET,6366,69,NB,R,PERMIT ISSUED - ENTIRE JOB/WORK,2/19/2020,HENRY,RADUSKY,RA,15029,N,3/28/2019,3,982730.5027,160470.1985,40.607129802771972,-74.005472370964299
338,5087313,"https://nycdob.github.io/CycloMedia/simple#921849.828856885,124503.367841229",520365293,1,STATEN ISLAND,6650,HYLAN BOULEVARD,7710,213,NB,R,PERMIT ISSUED - ENTIRE JOB/WORK,9/23/2020,PETER,CALVANICO,PE,70793,Y,3/19/2019,3,921849.8289,124503.3678,40.508188520809227,-74.224397854663508
337,5166299,"https://nycdob.github.io/CycloMedia/simple#921933.902179554,124635.550975814",520365300,1,STATEN ISLAND,6630,HYLAN BOULEVARD,7710,212,NB,R,PERMIT ISSUED - ENTIRE JOB/WORK,9/23/2020,PETER,CALVANICO,PE,70793,Y,3/19/2019,3,921933.9022,124635.551,40.50856018,-74.22409821
541,3243497,"https://nycdob.github.io/CycloMedia/simple#1009005.10828614,163114.829332054",321597544,1,BROOKLYN,6310,STRICKLAND AVENUE,8634,3,NB,R,PERMIT ISSUED - ENTIRE JOB/WORK,9/3/2020,DOUGLAS,PULASK,RA,16482,N,9/6/2019,3,1009005.108,163114.8293,40.614354319793833,-73.910836419197182
175,3429099,"https://nycdob.github.io/CycloMedia/simple#978353.629562974,173117.162017643",321385844,1,BROOKLYN,6020,3RD AVENUE,5780,45,NB,Q,PERMIT ISSUED - PARTIAL JOB,4/14/2021,CHANG HWA,TAN,RA,25376,N,1/17/2019,5,978353.6296,173117.162,40.64184952,-74.02124786
207,1064894,"https://nycdob.github.io/CycloMedia/simple#1004765.25751388,254690.147821471",121205025,1,MANHATTAN,4790,BROADWAY,2233,13,NB,R,PERMIT ISSUED - ENTIRE JOB/WORK,8/17/2021,CHRISTOPHER,FOGARTY,RA,28860,N,3/27/2019,14,1004765.258,254690.1478,40.865716358333216,-73.925828328191415
128,2129416,"https://nycdob.github.io/CycloMedia/simple#1013955.32509172,251834.466524974",220672644,1,BRONX,4656,PARK AVENUE,3040,5,NB,R,PERMIT ISSUED - ENTIRE JOB/WORK,10/31/2019,MOHAMMAD,BADALY,RA,19437,N,1/28/2019,6,1013955.325,251834.4665,40.85786057,-73.89261627
68,2011595,"https://nycdob.github.io/CycloMedia/simple#1014081.92227948,250137.721230805",210180490,1,BRONX,4477,3 AVENUE,3051,49,NB,R,PERMIT ISSUED - ENTIRE JOB/WORK,5/21/2021,MANISH,SAVANI,RA,29410,N,12/17/2019,9,1014081.922,250137.7212,40.853194755764051,-73.892164780981815
5,2130349,"https://nycdob.github.io/CycloMedia/simple#1024687.29181673,266889.540089309",220694700,1,BRONX,4421,WHITE PLAINS ROAD,5069,57,NB,Q,PERMIT ISSUED - PARTIAL JOB,5/28/2021,MOHAMMAD,BADALY,RA,19437,N,3/28/2019,7,1024687.292,266889.5401,40.8991394,-73.85372925
197,2130385,"https://nycdob.github.io/CycloMedia/simple#1012430.50366631,249114.115994558",210180114,1,BRONX,4325,PARK AVENUE,3029,61,NB,R,PERMIT ISSUED - ENTIRE JOB/WORK,8/10/2021,TAFADZWA,MWANDIAMBIRA,RA,38715,N,9/16/2019,3,1012430.504,249114.116,40.85039902,-73.89813995
558,2130537,"https://nycdob.github.io/CycloMedia/simple#1023195.07104789,266224.134595975",210180169,1,BRONX,4320,BRONX BLVD,5034,50,NB,R,PERMIT ISSUED - ENTIRE JOB/WORK,12/23/2020,SHIMING,TAM,RA,18525,N,9/25/2019,3,1023195.071,266224.1346,40.89731979,-73.85913086
456,2130635,"https://nycdob.github.io/CycloMedia/simple#1010907.78394271,263351.350315318",210179750,1,BRONX,3893,WALDO AVENUE,5778,890,NB,Q,PERMIT ISSUED - PARTIAL JOB,7/13/2021,DANIEL,BERNSTEIN,RA,16854,N,6/22/2019,5,1010907.784,263351.3503,40.88948059,-73.90358734
339,2129464,"https://nycdob.github.io/CycloMedia/simple#1021564.90665731,261943.610020563",220691393,1,BRONX,3838,CARPENTER AVE,4655,8,NB,R,PERMIT ISSUED - ENTIRE JOB/WORK,1/6/2021,MOHAMMAD,BADALY,RA,19437,N,3/19/2019,4,1021564.907,261943.61,40.88557816,-73.86505127
335,2057608,"https://nycdob.github.io/CycloMedia/simple#1021614.69067848,261925.107760981",220691400,1,BRONX,3836,CARPENTER AVE,4655,6,NB,R,PERMIT ISSUED - ENTIRE JOB/WORK,1/6/2021,MOHAMMAD,BADALY,RA,19437,N,3/19/2019,4,1021614.691,261925.1078,40.885518829335432,-73.864869945880756
354,2128827,"https://nycdob.github.io/CycloMedia/simple#1023128.94060272,258802.230804637",210179340,1,BRONX,3560,BRONXWOOD AVENUE,4683,40,NB,Q,PERMIT ISSUED - PARTIAL JOB,10/16/2020,MOHSEN,SALEH,PE,97645,N,4/1/2019,4,1023128.941,258802.2308,40.87694931,-73.85941315
149,2046334,"https://nycdob.github.io/CycloMedia/simple#1031938.41707823,248151.562801555",220656261,1,BRONX,3531,BRUCKNER BOULEVARD,4178,18,NB,R,PERMIT ISSUED - ENTIRE JOB/WORK,7/15/2020,FERNANDO,GEREMIA,RA,16393,N,3/8/2019,8,1031938.417,248151.5628,40.847664958529521,-73.827632112748176
396,5167672,"https://nycdob.github.io/CycloMedia/simple#937657.573159978,140553.75076665",520368129,1,STATEN ISLAND,3519,RICHMOND AVENUE,5520,49,NB,R,PERMIT ISSUED - ENTIRE JOB/WORK,11/13/2020,JOSEPH,MORACE,RA,14258,Y,5/7/2019,3,937657.5732,140553.7508,40.55234909,-74.16766357
395,5167674,"https://nycdob.github.io/CycloMedia/simple#937727.525119811,140546.669415981",520368147,1,STATEN ISLAND,3515,RICHMOND AVENUE,5520,44,NB,R,PERMIT ISSUED - ENTIRE JOB/WORK,11/13/2020,JOSEPH,MORACE,RA,14258,Y,5/7/2019,3,937727.5251,140546.6694,40.55233002,-74.1674118
195,5175206,"https://nycdob.github.io/CycloMedia/simple#945514.760201469,141779.670230806",520368441,1,STATEN ISLAND,3512,AMBOY ROAD,5090,22,NB,R,PERMIT ISSUED - ENTIRE JOB/WORK,2/17/2021,STANLEY,KREBUSHEVSKI,RA,21520,N,8/28/2019,3,945514.7602,141779.6702,40.5557518,-74.13939667
401,3114102,"https://nycdob.github.io/CycloMedia/simple#1000019.47566688,170444.385867149",321948666,1,BROOKLYN,3421,GLENWOOD ROAD,5009,1,NB,R,PERMIT ISSUED - ENTIRE JOB/WORK,3/2/2021,SHMUEL,WIEDER,RA,40451,N,5/14/2019,7,1000019.476,170444.3859,40.634492961479545,-73.943183965389665
387,2001305,"https://nycdob.github.io/CycloMedia/simple#1009897.17113456,241109.121505886",210179518,1,BRONX,3401,3RD AVENUE,2371,52,NB,R,PERMIT ISSUED - ENTIRE JOB/WORK,8/3/2021,ALEXANDER,GORLIN,RA,18222,N,4/29/2019,10,1009897.171,241109.1215,40.828427043488610,-73.907326164561084
31,2130528,"https://nycdob.github.io/CycloMedia/simple#1020908.85613213,257738.317906231",220715304,1,BRONX,3327,WHITE PLAINS ROAD,4624,49,NB,R,PERMIT ISSUED - ENTIRE JOB/WORK,1/8/2021,MOHAMMAD,BADALY,RA,19437,N,10/15/2019,6,1020908.856,257738.3179,40.8740387,-73.8674469
118,2129385,"https://nycdob.github.io/CycloMedia/simple#1034625.50061481,244658.123922303",220687433,1,BRONX,3294,CAMPBELL DRIVE,5409,91,NB,R,PERMIT ISSUED - ENTIRE JOB/WORK,3/16/2020,RAJASEKA,SAKHAMURI,PE,97462,N,1/17/2019,3,1034625.501,244658.1239,40.83806992,-73.81794739
438,3428627,"https://nycdob.github.io/CycloMedia/simple#1018195.07218964,187021.485586897",321593584,1,BROOKLYN,3192,ATLANTIC AVENUE,4153,40,NB,R,PERMIT ISSUED - ENTIRE JOB/WORK,8/18/2020,SHIMING,TAM,RA,18525,N,6/13/2019,6,1018195.072,187021.4856,40.67995071,-73.87761688
362,2017331,"https://nycdob.github.io/CycloMedia/simple#1015544.41935447,258442.39392589",220696432,1,BRONX,3162,VILLA AVENUE,3311,29,NB,R,PERMIT ISSUED - ENTIRE JOB/WORK,1/14/2021,VICTOR,FILLETTI,RA,29297,N,4/5/2019,11,1015544.419,258442.3939,40.87599182,-73.88684082
582,2130392,"https://nycdob.github.io/CycloMedia/simple#1015089.77295406,257584.27523531",210180356,1,BRONX,3069,VILLA AVENUE,3321,59,NB,R,PERMIT ISSUED - ENTIRE JOB/WORK,7/13/2020,JACK,ESTERSON,RA,16377,N,10/21/2019,12,1015089.773,257584.2752,40.87363815,-73.88848877
561,2130590,"https://nycdob.github.io/CycloMedia/simple#1017701.29594623,256510.610059813",220712762,1,BRONX,3056,DECATUR AVENUE,3331,19,NB,R,PERMIT ISSUED - ENTIRE JOB/WORK,8/9/2021,MOHAMMAD,BADALY,RA,19437,N,9/30/2019,4,1017701.296,256510.6101,40.87068176,-73.87905121
142,2015567,"https://nycdob.github.io/CycloMedia/simple#1011830.75355347,258606.551405981",220712058,1,BRONX,3055,SEDGWICK AVE,3253,226,NB,R,PERMIT ISSUED - ENTIRE JOB/WORK,6/23/2021,ANTHONY,NG,RA,24574,N,8/6/2019,6,1011830.754,258606.5514,40.876446432257765,-73.900267353036199
627,2130577,"https://nycdob.github.io/CycloMedia/simple#1021182.92809056,256500.379765317",220721850,1,BRONX,3033,CRUGER AVE,4568,39,NB,R,PERMIT ISSUED - ENTIRE JOB/WORK,1/28/2021,MOHAMMAD,BADALY,RA,19437,N,12/27/2019,4,1021182.928,256500.3798,40.8706398,-73.86646271
618,2130403,"https://nycdob.github.io/CycloMedia/simple#1021182.96614823,256475.364395395",220721841,1,BRONX,3031,CRUGER AVE,4568,40,NB,R,PERMIT ISSUED - ENTIRE JOB/WORK,1/28/2021,MOHAMMAD,BADALY,RA,19437,N,12/20/2019,4,1021182.966,256475.3644,40.87057114,-73.86646271
72,2055725,"https://nycdob.github.io/CycloMedia/simple#1022510.09210289,256496.125508726",220716946,1,BRONX,3031,BRONXWOOD AVE,4573,38,NB,R,PERMIT ISSUED - ENTIRE JOB/WORK,7/27/2021,MOHAMMAD,BADALY,RA,19437,N,10/16/2019,4,1022510.092,256496.1255,40.870614135912000,-73.861662723205626
66,2130396,"https://nycdob.github.io/CycloMedia/simple#1022575.92399222,256280.168591559",220716937,1,BRONX,3029,BRONXWOOD AVE,4573,138,NB,R,PERMIT ISSUED - ENTIRE JOB/WORK,7/27/2021,MOHAMMAD,BADALY,RA,19437,N,10/16/2019,4,1022575.924,256280.1686,40.87002945,-73.86142731
407,3199213,"https://nycdob.github.io/CycloMedia/simple#1001464.81234314,158263.165478975",321951697,1,BROOKLYN,3025,AVENUE U,7339,49,NB,R,PERMIT ISSUED - ENTIRE JOB/WORK,9/30/2020,FELIX,PUSTYLNIK,PE,60429,N,5/22/2019,3,1001464.812,158263.1655,40.601055357369461,-73.938007605419131
364,3245007,"https://nycdob.github.io/CycloMedia/simple#995253.84051314,150399.983042642",321913382,1,BROOKLYN,3017,BRIGHTON 8 STREET,8678,48,NB,R,PERMIT ISSUED - ENTIRE JOB/WORK,12/30/2020,YEVGENIY,RYBAK,RA,29077,N,4/8/2019,4,995253.8405,150399.983,40.57949066,-73.96038818
359,2054731,"https://nycdob.github.io/CycloMedia/simple#1020341.72636089,256303.038624555",220696174,1,BRONX,3013,BARKER AVE,4543,43,NB,R,PERMIT ISSUED - ENTIRE JOB/WORK,1/29/2021,DIEGO,AGUILERA,RA,32873,N,4/2/2019,7,1020341.726,256303.0386,40.870093304565465,-73.869503926153214
419,2061801,"https://nycdob.github.io/CycloMedia/simple#1027557.87564246,256147.40146865",220706118,1,BRONX,3013,EASTCHESTER ROAD,4762,92,NB,R,PERMIT ISSUED - ENTIRE JOB/WORK,3/24/2021,KHINE,PWINT,RA,34118,N,6/4/2019,5,1027557.876,256147.4015,40.869633673403342,-73.843413708256676
232,5174936,"https://nycdob.github.io/CycloMedia/simple#950904.385905132,143636.78364256",520358032,1,STATEN ISLAND,2981,HYLAN BLVD,4301,39,NB,R,PERMIT ISSUED - ENTIRE JOB/WORK,8/6/2019,STANLEY,KREBUSHEVSKI,RA,21520,N,1/14/2019,3,950904.3859,143636.7836,40.56087112,-74.12001038
345,3244441,"https://nycdob.github.io/CycloMedia/simple#994501.088081643,150535.837429732",321387281,1,BROOKLYN,2955,BRIGHTON 5 ST,8665,525,NB,R,PERMIT ISSUED - ENTIRE JOB/WORK,2/21/2020,ZARINA,KINDO,RA,35362,N,3/27/2019,6,994501.0881,150535.8374,40.579856181103608,-73.963096446148015
64,1091632,"https://nycdob.github.io/CycloMedia/simple#1001817.28342298,241143.112579644",121206603,1,MANHATTAN,2924,8 AVENUE,2040,62,NB,R,PERMIT ISSUED - ENTIRE JOB/WORK,5/20/2021,MARK,SULLIVAN,RA,35910,N,11/22/2019,3,1001817.283,241143.1126,40.82854843,-73.93652344
500,2130359,"https://nycdob.github.io/CycloMedia/simple#1025478.50873822,255570.555181399",210179956,1,BRONX,2917,THROOP AVENUE,4562,58,NB,R,PERMIT ISSUED - ENTIRE JOB/WORK,12/2/2020,MOHSEN,SALEH,PE,97645,N,7/24/2019,3,1025478.509,255570.5552,40.8680687,-73.85093689
498,2055284,"https://nycdob.github.io/CycloMedia/simple#1025379.21956672,255604.661740482",210179947,1,BRONX,2915,THROOP AVENUE,4562,60,NB,R,PERMIT ISSUED - ENTIRE JOB/WORK,11/13/2020,MOHSEN,SALEH,PE,97645,N,7/24/2019,3,1025379.22,255604.6617,40.868154440906110,-73.851294290484958
605,3428812,"https://nycdob.github.io/CycloMedia/simple#998166.075502306,175780.503147647",322015010,1,BROOKLYN,2913,SNYDER AVE,5108,49,NB,R,PERMIT ISSUED - ENTIRE JOB/WORK,8/3/2021,AMR,OUDA,PE,100814,N,12/2/2019,6,998166.0755,175780.5031,40.64915085,-73.94985199
9,2800474,"https://nycdob.github.io/CycloMedia/simple#1015256.47012722,255927.791999727",220722047,1,BRONX,2851,BAINBRIDGE AVENUE,3296,61,NB,R,PERMIT ISSUED - ENTIRE JOB/WORK,5/3/2021,FRANK,QUATELA,RA,32981,N,12/13/2019,3,1015256.47,255927.792,40.86909103,-73.88789368
450,2130640,"https://nycdob.github.io/CycloMedia/simple#1016268.48352313,254970.116093561",210179732,1,BRONX,2850,WEBSTER AVENUE,3273,118,NB,R,PERMIT ISSUED - ENTIRE JOB/WORK,6/7/2021,STEPHEN,JACOBS,RA,9723,N,6/20/2019,12,1016268.484,254970.1161,40.86645889,-73.8842392
590,3321669,"https://nycdob.github.io/CycloMedia/simple#988209.363460392,149755.734987304",321994945,1,BROOKLYN,2837,WEST 19TH STREET,7020,70,NB,R,PERMIT ISSUED - ENTIRE JOB/WORK,4/15/2021,PENG,LIU,PE,99650,N,10/31/2019,6,988209.3635,149755.735,40.57772827,-73.98574829
22,3087808,"https://nycdob.github.io/CycloMedia/simple#1014686.02212113,185912.012412146",321939676,1,BROOKLYN,2817,ATLANTIC AVENUE,3948,43,NB,R,PERMIT ISSUED - ENTIRE JOB/WORK,7/30/2021,PETER,PIZZIMENTI,RA,19677,N,4/2/2019,14,1014686.022,185912.0124,40.676909923627669,-73.890271921820499
449,3428841,"https://nycdob.github.io/CycloMedia/simple#998046.584271476,173692.955813557",321593815,1,BROOKLYN,2809,CLARENDON,5172,37,NB,R,PERMIT ISSUED - ENTIRE JOB/WORK,9/17/2020,NARESH,MAHANGU,PE,89068,N,6/20/2019,7,998046.5843,173692.9558,40.64342117,-73.95028687
49,2130576,"https://nycdob.github.io/CycloMedia/simple#1011991.30671005,256634.044196144",210179144,1,BRONX,2779,UNIVERSITY AVENUE,3249,104,NB,R,PERMIT ISSUED - ENTIRE JOB/WORK,3/24/2021,WU (WOODY),CHEN,PE,84996,N,2/28/2019,4,1011991.307,256634.0442,40.87104034,-73.89969635
372,1800583,"https://nycdob.github.io/CycloMedia/simple#1000589.66022205,239339.64112097",123872416,1,MANHATTAN,2754,FREDERICK DOUGLASS BOULEVARD,2032,3,NB,R,PERMIT ISSUED - ENTIRE JOB/WORK,3/17/2021,NICHOLAS,KAZALAS,RA,30561,N,4/11/2019,8,1000589.66,239339.6411,40.82360077,-73.94096375
141,1060495,"https://nycdob.github.io/CycloMedia/simple#1000569.56314939,239298.31738472",123872363,1,MANHATTAN,2750,FREDERICK DOUGLASS BOULEVARD,2032,1,NB,R,PERMIT ISSUED - ENTIRE JOB/WORK,6/23/2021,NICHOLAS,KAZALAS,RA,30561,N,4/11/2019,6,1000569.563,239298.3174,40.823479062747708,-73.941035060916931
475,3426528,"https://nycdob.github.io/CycloMedia/simple#996628.317094892,152272.690911397",321973316,1,BROOKLYN,2735,E 13 STREET,8766,72,NB,R,PERMIT ISSUED - ENTIRE JOB/WORK,9/11/2020,ALIX,MICHEL,RA,24556,N,6/27/2019,6,996628.3171,152272.6909,40.58462906,-73.95543671
261,3247272,"https://nycdob.github.io/CycloMedia/simple#1000401.00968072,152843.929598317",321921523,1,BROOKLYN,2733,EAST 27TH STREET,8787,101,NB,R,PERMIT ISSUED - ENTIRE JOB/WORK,3/23/2020,OLEG,RUDITSER,PE,85125,N,2/1/2019,3,1000401.01,152843.9296,40.586182649646226,-73.941851426859472
397,2120058,"https://nycdob.github.io/CycloMedia/simple#1010615.58373973,257109.234190643",220696717,1,BRONX,2724,HEATH AVENUE,3240,28,NB,R,PERMIT ISSUED - ENTIRE JOB/WORK,5/22/2020,WALTER,MARIN,RA,27948,N,5/7/2019,7,1010615.584,257109.2342,40.872340473432907,-73.904667324278549
412,2015136,"https://nycdob.github.io/CycloMedia/simple#1010482.48722114,256263.44159089",210179625,1,BRONX,2660,KINGSBRIDGE TERRACE,3237,90,NB,R,PERMIT ISSUED - ENTIRE JOB/WORK,6/18/2020,DIEGO,AGUILERA,RA,32873,N,5/24/2019,5,1010482.487,256263.4416,40.870019429631327,-73.905151885643676
23,3204976,"https://nycdob.github.io/CycloMedia/simple#997718.647263303,153124.379168645",321594681,1,BROOKLYN,2652,E 18 ST,7462,28,NB,R,PERMIT ISSUED - ENTIRE JOB/WORK,1/22/2021,ZARINA,KINDO,RA,35362,N,7/24/2019,6,997718.6473,153124.3792,40.586956909304519,-73.951508190595831
179,3204974,"https://nycdob.github.io/CycloMedia/simple#997704.345454633,153176.624470979",322019828,1,BROOKLYN,2646,EAST 18TH STREET,7462,25,NB,R,PERMIT ISSUED - ENTIRE JOB/WORK,1/22/2021,MICHAEL,KANG,RA,24849,N,12/20/2019,7,997704.3455,153176.6245,40.58710861,-73.95156097
157,5090045,"https://nycdob.github.io/CycloMedia/simple#943171.700255051,171380.521133974",510113379,1,STATEN ISLAND,2604,RICHMOND TERRACE,1151,27,NB,R,PERMIT ISSUED - ENTIRE JOB/WORK,7/9/2021,JACK,WILBERN,RA,26629,N,3/14/2019,6,943171.7003,171380.5211,40.636981236647912,-74.148007081715548
492,2130592,"https://nycdob.github.io/CycloMedia/simple#1027476.87941338,254357.919811398",210179723,1,BRONX,2567,EASTCHESTER ROAD,4480,55,NB,Q,PERMIT ISSUED - PARTIAL JOB,12/28/2020,MOHSEN,SALEH,PE,97645,N,7/11/2019,3,1027476.879,254357.9198,40.86473083,-73.84371948
488,2130348,"https://nycdob.github.io/CycloMedia/simple#1027567.77555706,254270.524316892",210179849,1,BRONX,2565,EASTCHESTER ROAD,4480,56,NB,Q,PERMIT ISSUED - PARTIAL JOB,12/28/2020,MOHSEN,SALEH,PE,97645,N,7/1/2019,3,1027567.776,254270.5243,40.86449051,-73.84339142
55,3428645,"https://nycdob.github.io/CycloMedia/simple#996796.368596047,153932.447434396",321941075,1,BROOKLYN,2536,EAST 15TH STREET,7435,20,NB,R,PERMIT ISSUED - ENTIRE JOB/WORK,12/18/2019,HARRY,SIMINO,RA,20654,N,4/18/2019,3,996796.3686,153932.4474,40.589176248592040,-73.954827213301414
56,3428644,"https://nycdob.github.io/CycloMedia/simple#996793.688483298,153949.80862014",321941066,1,BROOKLYN,2534,EAST 15TH STREET,7435,20,NB,R,PERMIT ISSUED - ENTIRE JOB/WORK,12/18/2019,HARRY,SIMINO,RA,20654,N,4/18/2019,3,996793.6885,153949.8086,40.589223905365500,-73.954836830729420
33,2130477,"https://nycdob.github.io/CycloMedia/simple#1009663.58269097,254937.272655308",220716964,1,BRONX,2501,SEDGWICK AVE,3237,163,NB,R,PERMIT ISSUED - ENTIRE JOB/WORK,8/6/2021,MOHAMMAD,BADALY,RA,19437,N,12/11/2019,7,1009663.583,254937.2727,40.86639023,-73.9081192
336,2051283,"https://nycdob.github.io/CycloMedia/simple#1020437.74552581,253894.687470138",220693961,1,BRONX,2500,BARKER AVENUE,4428,7,NB,R,PERMIT ISSUED - ENTIRE JOB/WORK,2/11/2021,CHARLES,MALLEA,RA,20506,N,3/19/2019,7,1020437.746,253894.6875,40.86349106,-73.86917114
347,2128708,"https://nycdob.github.io/CycloMedia/simple#1013285.79099771,253071.972252056",220694719,1,BRONX,2468,TIEBOUT AVENUE,3023,4,NB,Q,PERMIT ISSUED - PARTIAL JOB,6/9/2021,MOHAMMAD,BADALY,RA,19437,N,3/28/2019,7,1013285.791,253071.9723,40.861251044764153,-73.895029890977611
225,3254241,"https://nycdob.github.io/CycloMedia/simple#996709.281171799,154538.879620478",321913596,1,BROOKLYN,2454,E 15 STREET,7416,28,NB,R,PERMIT ISSUED - ENTIRE JOB/WORK,1/26/2021,ALIX,MICHEL,RA,24556,N,1/9/2019,3,996709.2812,154538.8796,40.590840906290211,-73.955139650463536
613,2130568,"https://nycdob.github.io/CycloMedia/simple#1020300.97348964,253627.634198472",220720655,1,BRONX,2439,BARKER AVENUE,4424,40,NB,R,PERMIT ISSUED - ENTIRE JOB/WORK,12/14/2020,FERNANDO,GEREMIA,RA,16393,N,12/18/2019,4,1020300.973,253627.6342,40.86275864,-73.86966705
384,2130523,"https://nycdob.github.io/CycloMedia/simple#1006084.66957322,259623.120895147",210179493,1,BRONX,2395,PALISADE AVE,5716,264,NB,R,PERMIT ISSUED - ENTIRE JOB/WORK,9/9/2020,DANIEL,BERNSTEIN,RA,16854,N,4/24/2019,6,1006084.67,259623.1209,40.87926102,-73.9210434
198,3117745,"https://nycdob.github.io/CycloMedia/simple#996657.228782475,174938.084556893",321915898,1,BROOKLYN,2337,BEDFORD AVENUE,5127,66,NB,R,PERMIT ISSUED - ENTIRE JOB/WORK,4/2/2020,SHMUEL,WIEDER,RA,40451,N,3/1/2019,6,996657.2288,174938.0846,40.646832547628968,-73.955289579239988
382,1033121,"https://nycdob.github.io/CycloMedia/simple#990653.729306549,226120.08750765",121205150,1,MANHATTAN,2330,BROADWAY,1232,45,NB,R,PERMIT ISSUED - ENTIRE JOB/WORK,4/1/2021,SAKY,YAKAS,RA,18047,N,4/22/2019,19,990653.7293,226120.0875,40.787321207667212,-73.976874967990412
480,3329360,"https://nycdob.github.io/CycloMedia/simple#994886.003978476,157981.128969565",321973904,1,BROOKLYN,2320,CONEY ISLAND AVENUE,7112,9,NB,R,PERMIT ISSUED - ENTIRE JOB/WORK,3/22/2021,MICHAEL,KANG,RA,24849,N,6/28/2019,4,994886.004,157981.129,40.60029984,-73.96170044
506,3428555,"https://nycdob.github.io/CycloMedia/simple#989274.40923056,154565.994395643",321594556,1,BROOKLYN,2317,W 12 ST,7162,69,NB,R,PERMIT ISSUED - ENTIRE JOB/WORK,7/28/2021,FRAN,HUANG,PE,83189,N,7/25/2019,3,989274.4092,154565.9944,40.59093094,-73.98191071
588,3119670,"https://nycdob.github.io/CycloMedia/simple#996774.647182807,173400.257251978",322000268,1,BROOKLYN,2316,CLARENDON ROAD,5189,7,NB,R,PERMIT ISSUED - ENTIRE JOB/WORK,1/22/2021,BAHRAM,TEHRANI,PE,83764,N,10/29/2019,6,996774.6472,173400.2573,40.642611378334081,-73.954869308023447
478,2130538,"https://nycdob.github.io/CycloMedia/simple#1009832.09580539,253225.162234396",220708651,1,BRONX,2311,ANDREWS AVENUE NORTH,3225,131,NB,R,PERMIT ISSUED - ENTIRE JOB/WORK,3/8/2021,FERNANDO,GEREMIA,RA,16393,N,6/28/2019,4,1009832.096,253225.1622,40.86169052,-73.90751648
210,2049740,"https://nycdob.github.io/CycloMedia/simple#1020087.36138405,252375.020233899",220722813,1,BRONX,2270,BRONX PARK EAST,4340,6,NB,R,PERMIT ISSUED - ENTIRE JOB/WORK,8/20/2021,MOHAMMAD,BADALY,RA,19437,N,12/30/2019,8,1020087.361,252375.0202,40.859313132416681,-73.870444632006595
247,3428682,"https://nycdob.github.io/CycloMedia/simple#986741.819151387,158980.969161481",321919297,1,BROOKLYN,2243,83RD STREET,6319,60,NB,R,PERMIT ISSUED - ENTIRE JOB/WORK,12/26/2019,HENRY,RADUSKY,RA,15029,N,1/24/2019,3,986741.8192,158980.9692,40.60305023,-73.99102783
248,3428681,"https://nycdob.github.io/CycloMedia/simple#986839.270400047,158999.046225056",321919304,1,BROOKLYN,2239,83RD STREET,6319,60,NB,R,PERMIT ISSUED - ENTIRE JOB/WORK,2/6/2020,HENRY,RADUSKY,RA,15029,N,1/24/2019,3,986839.2704,158999.0462,40.60309982,-73.99067688
470,2800863,"https://nycdob.github.io/CycloMedia/simple#1013803.19153772,250249.859786063",210179778,1,BRONX,2233,BATHGATE AVE,3050,88,NB,Q,PERMIT ISSUED - PARTIAL JOB,4/16/2021,SURESH,MANCHANDA,RA,18075,N,6/26/2019,4,1013803.192,250249.8598,40.85351181,-73.89317322
466,3133707,"https://nycdob.github.io/CycloMedia/simple#989353.142996967,163084.046585232",321929703,1,BROOKLYN,2173,65 ST,5550,40,NB,Q,PERMIT ISSUED - PARTIAL JOB,5/27/2021,WILLIAM,ROSS,RA,29682,N,6/26/2019,4,989353.143,163084.0466,40.61431122,-73.98162079
155,3426530,"https://nycdob.github.io/CycloMedia/simple#993096.046600387,157153.484299392",321942519,1,BROOKLYN,2142,EAST 4 STREET,7106,30,NB,R,PERMIT ISSUED - ENTIRE JOB/WORK,3/16/2021,RONALD,CAGAN,PE,54060,N,9/30/2019,3,993096.0466,157153.4843,40.59803009,-73.96814728
189,1091584,"https://nycdob.github.io/CycloMedia/simple#1000605.98236789,233924.869470224",121206364,1,MANHATTAN,2086,5TH AVENUE,1726,36,NB,R,PERMIT ISSUED - ENTIRE JOB/WORK,8/12/2020,NARESH,MAHANGU,PE,89068,N,10/9/2019,4,1000605.982,233924.8695,40.80873871,-73.94091797
17,2130391,"https://nycdob.github.io/CycloMedia/simple#1012017.96840213,249937.813166067",220699705,1,BRONX,2086,VALENTINE AVE,3144,4,NB,R,PERMIT ISSUED - ENTIRE JOB/WORK,10/30/2020,ANTHONY,DANIELS,RA,26668,N,4/18/2019,9,1012017.968,249937.8132,40.85266113,-73.89962769
533,3828204,"https://nycdob.github.io/CycloMedia/simple#1007899.5422558,181113.74018456",321982645,1,BROOKLYN,2057,STRAUSS STREET,3555,7,NB,R,PERMIT ISSUED - ENTIRE JOB/WORK,1/21/2021,JOSE,LOCKHART,PE,87807,N,9/20/2019,4,1007899.542,181113.7402,40.66376877,-73.91475677
278,3131942,"https://nycdob.github.io/CycloMedia/simple#989424.785898298,164851.98694697",321926751,1,BROOKLYN,2042,59 STREET,5514,23,NB,R,PERMIT ISSUED - ENTIRE JOB/WORK,8/19/2020,ALBERTO,ROMAN,PE,95364,N,2/13/2019,3,989424.7859,164851.9869,40.619155527523510,-73.981359986500863
305,2130580,"https://nycdob.github.io/CycloMedia/simple#1010285.21399364,249862.227687314",210179171,1,BRONX,2030,MORRIS AVE,2807,47,NB,R,PERMIT ISSUED - ENTIRE JOB/WORK,3/17/2021,AHARON,MACHLIS,RA,40765,N,3/5/2019,4,1010285.214,249862.2277,40.85245895,-73.90589142
320,2007945,"https://nycdob.github.io/CycloMedia/simple#1010032.43070656,249982.071935803",220678835,1,BRONX,2026,WALTON AVENUE,2829,40,NB,R,PERMIT ISSUED - ENTIRE JOB/WORK,7/6/2020,FERNANDO,GEREMIA,RA,16393,N,3/12/2019,8,1010032.431,249982.0719,40.852780298826552,-73.906803305062169
418,2800309,"https://nycdob.github.io/CycloMedia/simple#1013938.64664739,248219.469817981",210179670,1,BRONX,2021,ARTHUR AVE,3068,30,NB,R,PERMIT ISSUED - ENTIRE JOB/WORK,8/18/2020,NOEL,WONG,RA,26782,N,6/4/2019,4,1013938.647,248219.4698,40.84793854,-73.89269257
406,2130434,"https://nycdob.github.io/CycloMedia/simple#1016461.70328106,246135.152136222",210179616,1,BRONX,1973,DALY AVENUE,3121,56,NB,R,PERMIT ISSUED - ENTIRE JOB/WORK,2/24/2021,ARIEL,AUFGANG,RA,32789,N,5/21/2019,11,1016461.703,246135.1521,40.84220886,-73.88358307
433,3182286,"https://nycdob.github.io/CycloMedia/simple#994804.795479476,161468.834592566",321593539,1,BROOKLYN,1941,CONEY ISLAND AVENUE,6774,1,NB,R,PERMIT ISSUED - ENTIRE JOB/WORK,2/18/2021,FARIBA,MAKOOI,RA,34686,N,6/12/2019,7,994804.7955,161468.8346,40.609864698434080,-73.961986030317661
584,3428695,"https://nycdob.github.io/CycloMedia/simple#996457.496898472,159064.511317223",322001356,1,BROOKLYN,1911,EAST 16 STREET,7295,82,NB,R,PERMIT ISSUED - ENTIRE JOB/WORK,12/13/2019,EDUARD,GRINFELD,PE,66965,N,10/24/2019,3,996457.4969,159064.5113,40.60327148,-73.95603943
361,3042334,"https://nycdob.github.io/CycloMedia/simple#1006217.49247031,185978.284917399",321387450,1,BROOKLYN,1911,ATLANTIC AVENUE,1557,38,NB,R,PERMIT ISSUED - ENTIRE JOB/WORK,4/12/2021,DAVID,GROSS,RA,16587,N,4/3/2019,14,1006217.492,185978.2849,40.677116892586845,-73.920802465571029
585,3428694,"https://nycdob.github.io/CycloMedia/simple#996455.365669131,159089.528655648",322001365,1,BROOKLYN,1907,EAST 16 STREET,7295,83,NB,R,PERMIT ISSUED - ENTIRE JOB/WORK,12/13/2019,EDUARD,GRINFELD,PE,66965,N,10/24/2019,3,996455.3657,159089.5287,40.60334015,-73.95604706
266,4537954,"https://nycdob.github.io/CycloMedia/simple#1006933.61275722,198819.540074721",420665168,1,QUEENS,1906,FLUSHING AVENUE,3376,1,NB,R,PERMIT ISSUED - ENTIRE JOB/WORK,2/14/2020,RICHARD,VITTO,RA,16537,N,2/11/2019,3,1006933.613,198819.5401,40.712361338983804,-73.918177455884361
44,3428693,"https://nycdob.github.io/CycloMedia/simple#996451.117318049,159111.76122272",322001383,1,BROOKLYN,1905,EAST 16 STREET,7295,84,NB,R,PERMIT ISSUED - ENTIRE JOB/WORK,12/13/2019,EDUARD,GRINFELD,PE,66965,N,10/24/2019,3,996451.1173,159111.7612,40.6033929,-73.95606093
43,3428692,"https://nycdob.github.io/CycloMedia/simple#996425.943811968,159109.156897232",322001374,1,BROOKLYN,1903,EAST 16 STREET,7295,3,NB,R,PERMIT ISSUED - ENTIRE JOB/WORK,12/13/2019,EDUARD,GRINFELD,PE,66965,N,10/24/2019,3,996425.9438,159109.1569,40.60338579,-73.95615159
262,3210671,"https://nycdob.github.io/CycloMedia/simple#996985.443021059,163544.598813727",322064902,1,BROOKLYN,1901,OCEAN AVE,7674,35,NB,R,PERMIT ISSUED - ENTIRE JOB/WORK,6/28/2021,OLEG,RUDITSER,PE,85125,N,2/4/2019,8,996985.443,163544.5988,40.615559376825246,-73.954128334044057
2,3428937,"https://nycdob.github.io/CycloMedia/simple#1010187.41825747,187254.836498141",321941182,1,BROOKLYN,1882,BROADWAY,1535,25,NB,R,PERMIT ISSUED - ENTIRE JOB/WORK,5/5/2021,JEFFREY,KAMEN,RA,23279,N,10/8/2019,7,1010187.418,187254.8365,40.68061829,-73.90648651
309,3426676,"https://nycdob.github.io/CycloMedia/simple#1005042.05650097,186092.179046556",321386843,1,BROOKLYN,1835,ATLANTIC AVENUE,1710,52,NB,Q,PERMIT ISSUED - PARTIAL JOB,5/27/2021,GERALD,CALIENDO,RA,20241,N,3/6/2019,3,1005042.057,186092.179,40.67744064,-73.9250412
385,1091627,"https://nycdob.github.io/CycloMedia/simple#998747.540218636,226611.806668565",121205203,1,MANHATTAN,1834,THIRD AVENUE,1629,33,NB,R,PERMIT ISSUED - ENTIRE JOB/WORK,5/28/2020,WAI MAN,CHOW,RA,34073,N,4/26/2019,9,998747.5402,226611.8067,40.78866959,-73.94764709
535,2130374,"https://nycdob.github.io/CycloMedia/simple#1006912.53569964,249717.075090483",220712735,1,BRONX,1804,PALISADE PLACE,2877,547,NB,R,PERMIT ISSUED - ENTIRE JOB/WORK,5/7/2020,MOHAMMAD,BADALY,RA,19437,N,8/30/2019,4,1006912.536,249717.0751,40.85206985,-73.91808319
524,3181123,"https://nycdob.github.io/CycloMedia/simple#996672.644762143,164434.796508387",321597189,1,BROOKLYN,1800,OCEAN AVENUE,6748,14,NB,R,PERMIT ISSUED - ENTIRE JOB/WORK,4/20/2021,SCIBILIA,THOMAS,RA,34774,N,8/29/2019,8,996672.6448,164434.7965,40.618003228760990,-73.955253360894957
160,3206522,"https://nycdob.github.io/CycloMedia/simple#1000546.4171983,168897.096638888",321956353/321956362,1,BROOKLYN,1755,BROOKLYN AVE,7582,13,NB,R,PERMIT ISSUED - ENTIRE JOB/WORK,7/13/2021,ASHER,HERSHKOWITZ,RA,14962,N,4/16/2019,4,1000546.417,168897.0966,40.630245027383772,-73.941289178328120
499,3428947,"https://nycdob.github.io/CycloMedia/simple#1009634.82323405,183483.712806806",321594510,1,BROOKLYN,1755,PITKIN AVE,3489,254,NB,R,PERMIT ISSUED - ENTIRE JOB/WORK,1/13/2021,SHIMING,TAM,RA,18525,N,7/24/2019,7,1009634.823,183483.7128,40.67026901,-73.90849304
452,2130516,"https://nycdob.github.io/CycloMedia/simple#1016695.09126572,243676.840779901",220698555,1,BRONX,1745,WEST FARMS ROAD,3015,25,NB,Q,PERMIT ISSUED - PARTIAL JOB,3/24/2021,ADAM,SNYDER,RA,31777,N,6/21/2019,8,1016695.091,243676.8408,40.83546066,-73.88275146
143,3428965,"https://nycdob.github.io/CycloMedia/simple#996541.321205884,165075.41169697",322012674,1,BROOKLYN,1730,OCEAN AVE,6739,57,NB,R,PERMIT ISSUED - ENTIRE JOB/WORK,6/24/2021,FRANCISCO,NUNEZ,RA,42245,N,8/28/2019,7,996541.3212,165075.4117,40.61977005,-73.95572662
269,3134623,"https://nycdob.github.io/CycloMedia/simple#986079.087537214,164611.798450977",321924281,1,BROOKLYN,1725,68TH STREET,5568,13,NB,Q,PERMIT ISSUED - PARTIAL JOB,3/23/2020,FRAN,HUANG,PE,83189,N,2/7/2019,4,986079.0875,164611.7985,40.618497582439112,-73.993411538029363
474,2033976,"https://nycdob.github.io/CycloMedia/simple#1024565.16771714,245207.747166887",210179803,1,BRONX,1701,PURDY STREET,3943,199,NB,R,PERMIT ISSUED - ENTIRE JOB/WORK,4/13/2021,BETH,GREENBERG,RA,19540,N,6/27/2019,8,1024565.168,245207.7472,40.83963013,-73.85430145
315,3128371,"https://nycdob.github.io/CycloMedia/simple#989558.961154893,169732.611372054",321923059,1,BROOKLYN,1674,44 STREET,5432,37,NB,R,PERMIT ISSUED - ENTIRE JOB/WORK,1/4/2021,ALBERTO,ROMAN,PE,95364,N,3/11/2019,3,989558.9612,169732.6114,40.632551737615948,-73.980872837224567
460,3126393,"https://nycdob.github.io/CycloMedia/simple#989578.627454132,169884.661264807",321961668,1,BROOKLYN,1665,44 STREET,5379,60,NB,R,PERMIT ISSUED - ENTIRE JOB/WORK,1/22/2021,ALBERTO,ROMAN,PE,95364,N,6/24/2019,3,989578.6275,169884.6613,40.632969070536717,-73.980801863285606
405,3126366,"https://nycdob.github.io/CycloMedia/simple#989379.18001838,170191.463472724",321949095,1,BROOKLYN,1622,43 STREET,5379,16,NB,R,PERMIT ISSUED - ENTIRE JOB/WORK,9/16/2020,ASHER,HERSHKOWITZ,RA,14962,N,5/21/2019,3,989379.18,170191.4635,40.63381958,-73.98152161
570,2811224,"https://nycdob.github.io/CycloMedia/simple#1006775.40605263,247377.849782065",220716811,1,BRONX,1591,JESUP AVE,2872,245,NB,R,PERMIT ISSUED - ENTIRE JOB/WORK,7/10/2020,MOHAMMAD,BADALY,RA,19437,N,10/15/2019,8,1006775.406,247377.8498,40.84564972,-73.91858673
563,3428604,"https://nycdob.github.io/CycloMedia/simple#1007421.9231323,189213.053710312",321595047,1,BROOKLYN,1546,BROADWAY,1492,20,NB,R,PERMIT ISSUED - ENTIRE JOB/WORK,3/24/2021,XIUCHENG,LI,PE,98295,N,10/2/2019,6,1007421.923,189213.0537,40.68600082,-73.9164505
147,3125707,"https://nycdob.github.io/CycloMedia/simple#989219.620626226,170999.478917062",321965673,1,BROOKLYN,1544,41 STREET,5363,26,NB,R,PERMIT ISSUED - ENTIRE JOB/WORK,3/25/2020,ALBERTO,ROMAN,PE,95364,N,11/15/2019,4,989219.6206,170999.4789,40.636029216833464,-73.982094482672451
135,2096590,"https://nycdob.github.io/CycloMedia/simple#1006659.33771522,247353.983688056",210179634,1,BRONX,1544,SHAKESPEARE AVENUE,2872,148,NB,Q,PERMIT ISSUED - PARTIAL JOB,6/22/2021,SAKY,YAKAS,RA,18047,N,5/29/2019,7,1006659.338,247353.9837,40.845576181853787,-73.919004923998486
619,3428835,"https://nycdob.github.io/CycloMedia/simple#1002981.45465106,185342.79143773",321596493,1,BROOKLYN,1543,BERGEN STREET,1348,77,NB,R,PERMIT ISSUED - ENTIRE JOB/WORK,7/21/2021,ROBERT,BIANCHINI,RA,33616,N,12/20/2019,4,1002981.455,185342.7914,40.67538834,-73.93247223
26,3035658,"https://nycdob.github.io/CycloMedia/simple#1001762.84389931,185693.032535151",321964326,1,BROOKLYN,1541,DEAN ST,1340,53,NB,Q,PERMIT ISSUED - PARTIAL JOB,6/4/2021,ASHER,HERSHKOWITZ,RA,14962,N,6/7/2019,4,1001762.844,185693.0325,40.676343873099107,-73.936863166594520
424,3035659,"https://nycdob.github.io/CycloMedia/simple#1001746.20744964,185733.316575304",321964317,1,BROOKLYN,1539,DEAN ST,1340,54,NB,Q,PERMIT ISSUED - PARTIAL JOB,6/4/2021,ASHER,HERSHKOWITZ,RA,14962,N,6/7/2019,4,1001746.207,185733.3166,40.676454476569589,-73.936923039276493
27,3429138,"https://nycdob.github.io/CycloMedia/simple#1001878.6783133,185622.707216471",321964335,1,BROOKLYN,1537,DEAN STREET,1340,55,NB,Q,PERMIT ISSUED - PARTIAL JOB,6/4/2021,ASHER,HERSHKOWITZ,RA,14962,N,6/7/2019,4,1001878.678,185622.7072,40.67615891,-73.93644714
606,3428622,"https://nycdob.github.io/CycloMedia/simple#999507.196179643,170818.336562812",321596206,1,BROOKLYN,1524,NEW YORK AVE,5007,55,NB,R,PERMIT ISSUED - ENTIRE JOB/WORK,11/6/2020,NOEL,WONG,RA,26782,N,12/4/2019,4,999507.1962,170818.3366,40.63552856,-73.94503021
196,3428963,"https://nycdob.github.io/CycloMedia/simple#999418.241961226,170844.687559977",321595715,1,BROOKLYN,1522,NEW YORK AVE,5007,54,NB,R,PERMIT ISSUED - ENTIRE JOB/WORK,11/17/2020,NOEL,WONG,RA,26782,N,11/7/2019,4,999418.242,170844.6876,40.63560104,-73.94535065
371,3428906,"https://nycdob.github.io/CycloMedia/simple#1008443.65698121,193723.975134641",321387575,1,BROOKLYN,1510,GATES AVENUE,3345,4,NB,R,PERMIT ISSUED - ENTIRE JOB/WORK,9/15/2020,NARESH,MAHANGU,PE,89068,N,4/11/2019,11,1008443.657,193723.9751,40.69837952,-73.91275024
233,3426165,"https://nycdob.github.io/CycloMedia/simple#988186.927809715,170512.286321893",321905998,1,BROOKLYN,1476,45 ST,5618,38,NB,R,PERMIT ISSUED - ENTIRE JOB/WORK,8/9/2021,ASHER,HERSHKIWITZ,RA,14962,N,1/15/2019,4,988186.9278,170512.2863,40.63470078,-73.98581696
505,3428816,"https://nycdob.github.io/CycloMedia/simple#999544.922154054,171438.211635396",321969991,1,BROOKLYN,1463,NEW YORK AVE,4997,17,NB,R,PERMIT ISSUED - ENTIRE JOB/WORK,5/20/2020,PANAGIOTIS,VIKATOS,RA,34254,N,7/25/2019,6,999544.9222,171438.2116,40.63722992,-73.94489288
20,3429017,"https://nycdob.github.io/CycloMedia/simple#998018.684392884,170617.319904476",322064948,1,BROOKLYN,1462,FLATBUSH AVENUE,5249,59,NB,R,PERMIT ISSUED - ENTIRE JOB/WORK,6/29/2021,CHARLES,MALLEA,RA,20506,N,3/8/2019,7,998018.6844,170617.3199,40.63497925,-73.95039368
231,2010569,"https://nycdob.github.io/CycloMedia/simple#1014602.15549096,242588.667103231",220685373,1,BRONX,1462,SOUTHERN BLVD,2981,2,NB,R,PERMIT ISSUED - ENTIRE JOB/WORK,6/9/2021,ALIX,MICHEL,RA,24556,N,1/11/2019,7,1014602.155,242588.6671,40.83248138,-73.89031982
213,4623651,"https://nycdob.github.io/CycloMedia/simple#1003545.27996697,218811.290445477",420666684,1,QUEENS,1454,31 AVE,533,45,NB,R,PERMIT ISSUED - ENTIRE JOB/WORK,6/25/2021,CHI,LAU,RA,33977,N,12/6/2019,7,1003545.28,218811.2904,40.76725006,-73.93034363
211,3141363,"https://nycdob.github.io/CycloMedia/simple#985555.713583976,167408.30959022",321906005,1,BROOKLYN,1453,61 STREET,5720,57,NB,R,PERMIT ISSUED - ENTIRE JOB/WORK,11/2/2020,ASHER,HERSHKOWITZ,RA,14962,N,2/7/2019,3,985555.7136,167408.3096,40.626173514070622,-73.995296215466468
447,3138759,"https://nycdob.github.io/CycloMedia/simple#986674.346845388,169347.733204812",321797141,1,BROOKLYN,1422,52 STREET,5664,14,NB,R,PERMIT ISSUED - ENTIRE JOB/WORK,9/15/2020,ASHER,HERSHKOWITZ,RA,14962,N,6/20/2019,3,986674.3468,169347.7332,40.631496587680992,-73.991265684200968
139,3330859,"https://nycdob.github.io/CycloMedia/simple#1010211.35324897,186131.814794064",321913612,1,BROOKLYN,1419,HERKIMER STREET,1553,25,NB,Q,PERMIT ISSUED - PARTIAL JOB,6/23/2021,ALIX,MICHEL,RA,24556,N,1/9/2019,3,1010211.353,186131.8148,40.677527485145838,-73.906403157288494
30,3042292,"https://nycdob.github.io/CycloMedia/simple#1010089.16353272,186175.211360812",321597884,1,BROOKLYN,1405,HERKIMER ST,1553,37,NB,R,PERMIT ISSUED - ENTIRE JOB/WORK,5/7/2021,NARESH,MAHANGU,PE,89068,N,9/20/2019,4,1010089.164,186175.2114,40.677646956357471,-73.906843513511191
330,3429016,"https://nycdob.github.io/CycloMedia/simple#1005329.35546705,193990.695401728",321387030,1,BROOKLYN,1376,DEKALB AVENUE,3245,27,NB,Q,PERMIT ISSUED - PARTIAL JOB,2/4/2021,DEZHANG,FANG,RA,37876,N,3/15/2019,4,1005329.355,193990.6954,40.69911957,-73.92398071
136,2830528,"https://nycdob.github.io/CycloMedia/simple#1020453.58538914,243288.838603139",220606084,1,BRONX,1349,COMMONWEALTH AVENUE,3874,51,NB,R,PERMIT ISSUED - ENTIRE JOB/WORK,4/7/2021,BELAL,SALIM,RA,34042,N,11/29/2019,3,1020453.585,243288.8386,40.8343811,-73.86917114
311,2130566,"https://nycdob.github.io/CycloMedia/simple#1012718.02835372,241525.938585639",210179199,1,BRONX,1340,PROSPECT AVE,2970,12,NB,Q,PERMIT ISSUED - PARTIAL JOB,12/2/2020,SURESH,MANCHANDA,RA,18075,N,3/8/2019,4,1012718.028,241525.9386,40.82957077,-73.89713287
562,2130582,"https://nycdob.github.io/CycloMedia/simple#1008452.65105772,244042.466360971",220715313,1,BRONX,1329,MORRIS AVENUE,2816,58,NB,R,PERMIT ISSUED - ENTIRE JOB/WORK,1/13/2021,MOHAMMAD,BADALY,RA,19437,N,10/2/2019,7,1008452.651,244042.4664,40.83649063,-73.91253662
87,2130526,"https://nycdob.github.io/CycloMedia/simple#1013015.01299597,242130.866181567",220632411,1,BRONX,1323,CHISHOLM STREET,2971,36,NB,R,PERMIT ISSUED - ENTIRE JOB/WORK,9/25/2020,SHMUEL,WIEDER,RA,40451,N,12/18/2019,7,1013015.013,242130.8662,40.83123016,-73.89605713
166,2007033,"https://nycdob.github.io/CycloMedia/simple#1008978.82585838,243555.164514065",220694586,1,BRONX,1306,FINDLAY AVENUE,2782,8,NB,R,PERMIT ISSUED - ENTIRE JOB/WORK,7/16/2021,MOHAMMAD,BADALY,RA,19437,N,4/1/2019,7,1008978.826,243555.1645,40.83515167,-73.9106369
547,3428830,"https://nycdob.github.io/CycloMedia/simple#999236.89980422,173037.678252727",321989489,1,BROOKLYN,1286,NEW YORK AVENUE,4949,35,NB,R,PERMIT ISSUED - ENTIRE JOB/WORK,4/15/2021,LEANDRO,DICKSON,RA,30453,N,9/12/2019,6,999236.8998,173037.6783,40.64162064,-73.94599915
463,2130430,"https://nycdob.github.io/CycloMedia/simple#1013313.41364589,241544.712498233",220708688,1,BRONX,1266,CHISHOLM STREET,2973,52,NB,Q,PERMIT ISSUED - PARTIAL JOB,8/20/2021,OLEG,RUDITSER,PE,85125,N,6/25/2019,4,1013313.414,241544.7125,40.82962036,-73.89498138
446,3429001,"https://nycdob.github.io/CycloMedia/simple#997308.951232299,187037.420922473",321593735,1,BROOKLYN,1259,BEDFORD AVENUE,1860,2,NB,R,PERMIT ISSUED - ENTIRE JOB/WORK,7/30/2021,ALEXANDER,ZHITNIK,RA,32709,N,6/19/2019,7,997308.9512,187037.4209,40.6800499,-73.95291901
422,3137206,"https://nycdob.github.io/CycloMedia/simple#986499.371801645,171155.718105897",321963675,1,BROOKLYN,1258,47 STREET,5628,26,NB,R,PERMIT ISSUED - ENTIRE JOB/WORK,12/10/2020,JOSE,LOCKHART,PE,87807,N,6/6/2019,5,986499.3718,171155.7181,40.636459168642780,-73.991895472899145
608,3138035,"https://nycdob.github.io/CycloMedia/simple#985851.253675297,170660.727626055",321980692,1,BROOKLYN,1232,50TH STREET,5648,20,NB,R,PERMIT ISSUED - ENTIRE JOB/WORK,6/30/2020,JOSE,LOCKHART,PE,87807,N,12/5/2019,4,985851.2537,170660.7276,40.63510895,-73.99423218
273,3123064,"https://nycdob.github.io/CycloMedia/simple#987627.060163051,172922.028549641",321512412,1,BROOKLYN,1224,39 STREET,5293,13,NB,R,PERMIT ISSUED - ENTIRE JOB/WORK,3/12/2021,ASHER,HERSHKOWITZ,RA,14962,N,2/8/2019,4,987627.0602,172922.0285,40.641306955127511,-73.987831507416516
448,3428562,"https://nycdob.github.io/CycloMedia/simple#1005885.33795089,182554.476148233",321593771,1,BROOKLYN,1223,EAST NEW YORK AVENUE,1477,1,NB,Q,PERMIT ISSUED - PARTIAL JOB,7/16/2021,MARK,SULLIVAN,RA,35910,N,6/20/2019,3,1005885.338,182554.4761,40.66772842,-73.92201233
71,2130453,"https://nycdob.github.io/CycloMedia/simple#1013970.38477288,241271.713372305",210180365,1,BRONX,1210,SIMPSON STREET,2975,1,NB,R,PERMIT ISSUED - ENTIRE JOB/WORK,5/25/2021,AKIKO,KYEI-ABOAGYE,RA,32815,N,10/21/2019,7,1013970.385,241271.7134,40.82886887,-73.89260864
538,3171172,"https://nycdob.github.io/CycloMedia/simple#993011.869603381,166082.018935725",321983608,1,BROOKLYN,1169,EAST 7 STREET,6528,57,NB,R,PERMIT ISSUED - ENTIRE JOB/WORK,3/12/2020,WARREN,MEISTER,RA,15968,N,9/3/2019,3,993011.8696,166082.0189,40.622528887503591,-73.968437414122178
140,2130521,"https://nycdob.github.io/CycloMedia/simple#1005763.59902114,243413.113945141",210179705,1,BRONX,1169,RIVER AVENUE,2496,73,NB,R,PERMIT ISSUED - ENTIRE JOB/WORK,6/23/2021,ARIEL,AUFGANG,RA,32789,N,2/19/2019,19,1005763.599,243413.1139,40.8347702,-73.92225647
546,2130565,"https://nycdob.github.io/CycloMedia/simple#1014369.81671681,240966.440360814",220714494,1,BRONX,1169,HOE AVENUE,2745,33,NB,R,PERMIT ISSUED - ENTIRE JOB/WORK,3/23/2021,SHMUEL,WIEDER,RA,40451,N,9/11/2019,7,1014369.817,240966.4404,40.82802963,-73.89116669
393,2129480,"https://nycdob.github.io/CycloMedia/simple#1024807.21611756,255487.59996672",210179536,1,BRONX,1157,ARNOW AVENUE,4560,5,NB,Q,PERMIT ISSUED - PARTIAL JOB,10/8/2020,MOHSEN,SALEH,PE,97645,N,5/3/2019,3,1024807.216,255487.6,40.86783579,-73.85336312
494,2129481,"https://nycdob.github.io/CycloMedia/simple#1024805.47990055,255504.093043983",210179867,1,BRONX,1155,ARNOW AVENUE,4560,6,NB,Q,PERMIT ISSUED - PARTIAL JOB,10/9/2020,MOHSEN,SALEH,PE,97645,N,7/13/2019,3,1024805.48,255504.093,40.86788107,-73.85336929
360,2129365,"https://nycdob.github.io/CycloMedia/simple#1013843.65897647,236116.663971141",210179359,1,BRONX,1127,LONGWOOD AVENUE,2737,75,NB,Q,PERMIT ISSUED - PARTIAL JOB,3/9/2021,OLABANJI,AWOSIKA,RA,22120,N,4/3/2019,3,1013843.659,236116.664,40.81472015,-73.89308929
545,3428850,"https://nycdob.github.io/CycloMedia/simple#1000578.49915513,183673.293136314",321597688,1,BROOKLYN,1120,SAINT JOHNS PLACE,1258,16,NB,R,PERMIT ISSUED - ENTIRE JOB/WORK,8/4/2020,SCOTT,LOIKITS,RA,29907,N,9/11/2019,7,1000578.499,183673.2931,40.6708107,-73.94113922
300,3428998,"https://nycdob.github.io/CycloMedia/simple#1007446.69112739,189864.898863316",321921140,1,BROOKLYN,1066,JEFFERSON AVENUE,3387,28,NB,Q,PERMIT ISSUED - PARTIAL JOB,6/29/2021,JOHN,SUNWOO,RA,34329,N,2/28/2019,4,1007446.691,189864.8989,40.68778992,-73.91635895
301,3141483,"https://nycdob.github.io/CycloMedia/simple#982849.540190548,169042.803696558",321833646,1,BROOKLYN,1058,62ND STREET,5730,30,NB,R,PERMIT ISSUED - ENTIRE JOB/WORK,8/5/2020,MANG,WONG,PE,92097,N,2/28/2019,3,982849.5402,169042.8037,40.630659841685883,-74.005045443429708
454,4622929,"https://nycdob.github.io/CycloMedia/simple#1052541.58486131,159262.937429562",420666005,1,QUEENS,1047,BEACH 21 STREET,15705,69,NB,R,PERMIT ISSUED - ENTIRE JOB/WORK,4/6/2021,ALEN,MOGHADDAM,RA,33818,N,6/22/2019,10,1052541.585,159262.9374,40.6035614,-73.75406647
270,4617912,"https://nycdob.github.io/CycloMedia/simple#1052864.41426814,158976.158803642",420666210,1,QUEENS,1018,BEACH 20TH STREET,15561,8,NB,R,PERMIT ISSUED - ENTIRE JOB/WORK,1/11/2021,MAGNUS,MAGNUSSON,RA,14993,N,2/7/2019,10,1052864.414,158976.1588,40.60277176,-73.7529068
514,2130514,"https://nycdob.github.io/CycloMedia/simple#1004185.17304413,242490.305095226",210180016,1,BRONX,990,WOODYCREST AVE,2507,18,NB,R,PERMIT ISSUED - ENTIRE JOB/WORK,10/30/2020,WU (WOODY),CHEN,PE,84996,N,8/7/2019,6,1004185.173,242490.3051,40.83224106,-73.92796326
566,5174483,"https://nycdob.github.io/CycloMedia/simple#953663.375465885,152861.361321971",520378528,1,STATEN ISLAND,985,TODT HILL ROAD,898,103,NB,R,PERMIT ISSUED - ENTIRE JOB/WORK,6/22/2020,LEONARD,RAMPULLA,RA,18963,N,10/3/2019,3,953663.3755,152861.3613,40.58620071,-74.11012268
614,5047035,"https://nycdob.github.io/CycloMedia/simple#959686.546490386,158197.903142303",520395046,1,STATEN ISLAND,980,WEST FINGERBOARD ROAD,3194,46,NB,R,PERMIT ISSUED - ENTIRE JOB/WORK,7/20/2020,PETER,CALVANICO,PE,70793,Y,12/19/2019,3,959686.5465,158197.9031,40.600858904172718,-74.088455390806459
193,2001224,"https://nycdob.github.io/CycloMedia/simple#1009290.58540547,239955.232737556",210178966,1,BRONX,972,WASHINGTON AVENUE,2368,12,NB,R,PERMIT ISSUED - ENTIRE JOB/WORK,8/6/2021,CLAUDIA,OUDAS,RA,41807,N,1/7/2019,12,1009290.585,239955.2327,40.825261689986590,-73.909522314650332
3,3335119,"https://nycdob.github.io/CycloMedia/simple#995180.061133131,187231.710560143",321597795,1,BROOKLYN,963,ATLANTIC AVENUE,2019,80,NB,R,PERMIT ISSUED - ENTIRE JOB/WORK,6/22/2021,DANIEL,BERNSTEIN,RA,16854,N,9/16/2019,9,995180.0611,187231.7106,40.680577771049073,-73.960592738145920
268,3426631,"https://nycdob.github.io/CycloMedia/simple#1019062.35031073,185776.058943897",321386193,1,BROOKLYN,963,GLENMORE AVENUE,4192,47,NB,Q,PERMIT ISSUED - PARTIAL JOB,9/21/2020,OLABANJI,AWOSIKA,RA,22120,N,2/7/2019,3,1019062.35,185776.0589,40.67652893,-73.87449646
267,3426630,"https://nycdob.github.io/CycloMedia/simple#1019041.1932008,185773.248582065",321386184,1,BROOKLYN,961,GLENMORE AVENUE,4192,1,NB,Q,PERMIT ISSUED - PARTIAL JOB,9/21/2020,OLABANJI,AWOSIKA,RA,22120,N,2/7/2019,3,1019041.193,185773.2486,40.6765213,-73.87457275
536,4623238,"https://nycdob.github.io/CycloMedia/simple#1006983.92236789,143908.073782399",421796970,1,QUEENS,936,BAYSIDE,16350,300,NB,R,PERMIT ISSUED - ENTIRE JOB/WORK,12/16/2019,GARY,LENHART,RA,21764,N,8/30/2019,3,1006983.922,143908.0738,40.56164932,-73.91818237
236,2806860,"https://nycdob.github.io/CycloMedia/simple#1016914.99240072,246558.270384476",210178993,1,BRONX,935,EAST 179TH STREET,3127,39,NB,R,PERMIT ISSUED - ENTIRE JOB/WORK,10/22/2019,YEVGENIY,MEKHTIYEV,RA,38063,N,1/15/2019,7,1016914.992,246558.2704,40.84336853,-73.88194275
184,3140233,"https://nycdob.github.io/CycloMedia/simple#982863.295412391,170722.37579672",321721570,1,BROOKLYN,928,57TH STREET,5694,13,NB,Q,PERMIT ISSUED - PARTIAL JOB,8/6/2021,MANG,WONG,PE,92097,N,4/1/2019,4,982863.2954,170722.3758,40.635269913286898,-74.004996232552102
577,3393613,"https://nycdob.github.io/CycloMedia/simple#1001609.70739456,193535.138898149",321595387,1,BROOKLYN,886,BROADWAY,1582,15,NB,R,PERMIT ISSUED - ENTIRE JOB/WORK,6/25/2020,NATALIYA,DONSKOY,RA,27477,N,10/18/2019,7,1001609.707,193535.1389,40.697868953644551,-73.937395044161008
99,2004474,"https://nycdob.github.io/CycloMedia/simple#1009838.76508339,238907.0609494",220708410,1,BRONX,885,CAULDWELL AVE,2627,50,NB,R,PERMIT ISSUED - ENTIRE JOB/WORK,6/4/2021,MOHAMMAD,BADALY,RA,19437,N,6/25/2019,5,1009838.765,238907.0609,40.82239151,-73.907547
612,2810370,"https://nycdob.github.io/CycloMedia/simple#1012995.30995139,240942.536209136",220710032,1,BRONX,882,HOME STREET,2692,40,NB,R,PERMIT ISSUED - ENTIRE JOB/WORK,7/19/2021,FERNANDO,GEREMIA,RA,16393,N,12/17/2019,4,1012995.31,240942.5362,40.8279686,-73.89613342
425,3337964,"https://nycdob.github.io/CycloMedia/simple#1004901.75625664,190971.265745059",321593469,1,BROOKLYN,881,LEXINGTON AVENUE,1623,57,NB,R,PERMIT ISSUED - ENTIRE JOB/WORK,10/23/2020,RALPH,KOWALCZYK,RA,39696,N,6/7/2019,6,1004901.756,190971.2657,40.690824648213983,-73.925530672159297
319,2004081,"https://nycdob.github.io/CycloMedia/simple#1010700.03698289,234476.278472394",210179215,1,BRONX,880,EAST 147TH STREET,2600,103,NB,R,PERMIT ISSUED - ENTIRE JOB/WORK,10/14/2020,SAKY,YAKAS,RA,18047,N,3/15/2019,11,1010700.037,234476.2785,40.810219400423755,-73.904451223293051
280,3170530,"https://nycdob.github.io/CycloMedia/simple#993147.209227726,167888.160336554",321921514,1,BROOKLYN,874,EAST 9 STREET,6511,37,NB,R,PERMIT ISSUED - ENTIRE JOB/WORK,3/25/2020,WARREN,MEISTER,RA,15968,N,2/14/2019,3,993147.2092,167888.1603,40.627486231848636,-73.967947504155177
370,3117315,"https://nycdob.github.io/CycloMedia/simple#997575.217760131,175880.347108066",321387539,1,BROOKLYN,865,ROGERS AVENUE,5108,11,NB,Q,PERMIT ISSUED - PARTIAL JOB,7/1/2021,MITCHELL,NEWMAN,RA,15609,N,4/10/2019,6,997575.2178,175880.3471,40.649417520272230,-73.951979673290211
559,3428884,"https://nycdob.github.io/CycloMedia/simple#1004625.34407981,190925.569314137",321597982,1,BROOKLYN,853,LEXINGTON AVE,1623,70,NB,R,PERMIT ISSUED - ENTIRE JOB/WORK,12/29/2020,SHMUEL,WIEDER,RA,40451,N,9/25/2019,7,1004625.344,190925.5693,40.69070816,-73.92652893
131,2130520,"https://nycdob.github.io/CycloMedia/simple#1013288.99210681,237252.878562227",220709491,1,BRONX,845,SOUTHERN BLVD,2722,121,NB,R,PERMIT ISSUED - ENTIRE JOB/WORK,12/24/2020,MOHAMMAD,BADALY,RA,19437,N,6/27/2019,6,1013288.992,237252.8786,40.81784058,-73.8950882
204,5175245,"https://nycdob.github.io/CycloMedia/simple#960993.902471468,149027.159016639",510113388,1,STATEN ISLAND,839,FATHER CAPODANNO BOULEVARD,3847,24,NB,Q,PERMIT ISSUED - PARTIAL JOB,4/23/2021,HARRY,SIMINO,RA,20654,N,3/15/2019,4,960993.9025,149027.159,40.57569885,-74.08371735
574,3223202,"https://nycdob.github.io/CycloMedia/simple#1005429.83361256,171357.954578057",321821748,1,BROOKLYN,831,EAST 55 STREET,7973,33,NB,R,PERMIT ISSUED - ENTIRE JOB/WORK,7/21/2021,SION,HOURIZADEH,PE,74129,N,10/22/2019,4,1005429.834,171357.9546,40.636989227972869,-73.923688062455298
78,3831229,"https://nycdob.github.io/CycloMedia/simple#1002114.7014633,192731.731056139",321386503,1,BROOKLYN,821,WILLOUGHBY AVENUE,1589,58,NB,Q,PERMIT ISSUED - PARTIAL JOB,5/27/2021,GERALD,CALIENDO,RA,20241,N,2/28/2019,3,1002114.701,192731.7311,40.69567108,-73.93557739
593,3116601,"https://nycdob.github.io/CycloMedia/simple#995643.790520638,177072.084225893",321595751,1,BROOKLYN,815,FLATBUSH AVENUE,5083,3,NB,R,PERMIT ISSUED - ENTIRE JOB/WORK,11/19/2020,JAMES,SHANNON,RA,40492,N,11/8/2019,8,995643.7905,177072.0842,40.652691274726273,-73.958937978063474
122,2010043,"https://nycdob.github.io/CycloMedia/simple#1015212.94790456,246376.344895303",210179082,1,BRONX,808,ELSMERE PLACE,2955,25,NB,R,PERMIT ISSUED - ENTIRE JOB/WORK,6/16/2021,DE-JAN,LU,RA,34322,N,2/7/2019,6,1015212.948,246376.3449,40.842867001554580,-73.888093769533441
560,2130384,"https://nycdob.github.io/CycloMedia/simple#1023121.48195621,260820.278277725",220715956,1,BRONX,804,EAST 219 STREET,4677,46,NB,R,PERMIT ISSUED - ENTIRE JOB/WORK,8/4/2021,THOMAS,CURRO,RA,22762,N,9/30/2019,3,1023121.482,260820.2783,40.88248825,-73.85942841
539,2130536,"https://nycdob.github.io/CycloMedia/simple#1023032.90536173,260802.068340391",220713967,1,BRONX,800,EAST 219 STREET,4677,45,NB,R,PERMIT ISSUED - ENTIRE JOB/WORK,7/29/2021,THOMAS,CURRO,RA,22762,N,9/4/2019,3,1023032.905,260802.0683,40.88243866,-73.85974884
126,3429105,"https://nycdob.github.io/CycloMedia/simple#999811.734612554,171420.314033389",321386264,1,BROOKLYN,785,EAST 34TH STREET,4998,15,NB,R,PERMIT ISSUED - ENTIRE JOB/WORK,7/9/2021,BAHRAM,TEHRANI,RA,83764,N,2/13/2019,4,999811.7346,171420.314,40.63718033,-73.94393158
7,2057887,"https://nycdob.github.io/CycloMedia/simple#1022287.9642663,259671.099145651",220689431,1,BRONX,765,E 214 ST,4662,75,NB,R,PERMIT ISSUED - ENTIRE JOB/WORK,7/19/2021,FERNANDO,GEREMIA,RA,16393,N,4/2/2019,7,1022287.964,259671.0991,40.879329409751080,-73.862447844578725
237,2057765,"https://nycdob.github.io/CycloMedia/simple#1022266.6395058,259292.420441061",220656243,1,BRONX,762,E 213 STREET,4660,53,NB,R,PERMIT ISSUED - ENTIRE JOB/WORK,1/14/2021,FERNANDO,GEREMIA,RA,16393,N,1/16/2019,4,1022266.64,259292.4204,40.878290147249878,-73.862527107695342
1,2004691,"https://nycdob.github.io/CycloMedia/simple#1010687.38116831,238043.914053649",220684310,1,BRONX,760,EAST 160 STREET,2656,7,NB,R,PERMIT ISSUED - ENTIRE JOB/WORK,4/29/2021,KOSTA,KOULOURIS,RA,34846,N,1/7/2019,4,1010687.381,238043.9141,40.820011594151282,-73.904482888408850
241,3097078,"https://nycdob.github.io/CycloMedia/simple#1017038.54891214,181894.502730638",321385808,1,BROOKLYN,759,CLEVELAND ST,4313,70,NB,R,PERMIT ISSUED - ENTIRE JOB/WORK,12/10/2020,PIROOZ,SOLTANIZADEH,PE,80350,N,1/16/2019,3,1017038.549,181894.5027,40.66587437,-73.88181013
240,3426527,"https://nycdob.github.io/CycloMedia/simple#1017055.04198939,181904.051267982",321385791,1,BROOKLYN,757,CLEVELAND ST,4313,71,NB,R,PERMIT ISSUED - ENTIRE JOB/WORK,11/25/2020,PIROOZ,SOLTANIZADEH,PE,80350,N,1/16/2019,3,1017055.042,181904.0513,40.66590052,-73.88175064
239,3426526,"https://nycdob.github.io/CycloMedia/simple#1017044.43439905,181922.104053393",321385782,1,BROOKLYN,755,CLEVELAND ST,4313,72,NB,R,PERMIT ISSUED - ENTIRE JOB/WORK,11/19/2020,PIROOZ,SOLTANIZADEH,PE,80350,N,1/16/2019,3,1017044.434,181922.1041,40.6659584,-73.88179016
487,2124551,"https://nycdob.github.io/CycloMedia/simple#1008180.82548589,231270.939738721",210179830,1,BRONX,750,EAST 134 STREET,2562,49,NB,R,PERMIT ISSUED - ENTIRE JOB/WORK,7/29/2021,MITCHELL,NEWMAN,RA,15609,N,7/1/2019,8,1008180.825,231270.9397,40.801428816329974,-73.913563105506370
304,3426232,"https://nycdob.github.io/CycloMedia/simple#1001423.69595556,179618.432807729",321912891,1,BROOKLYN,735,FENIMORE STREET,4813,55,NB,R,PERMIT ISSUED - ENTIRE JOB/WORK,4/19/2021,GERALD,CALIENDO,RA,20241,N,3/4/2019,4,1001423.696,179618.4328,40.65967941,-73.93810272
164,3015907,"https://nycdob.github.io/CycloMedia/simple#981606.992150724,171540.199292317",322066704,1,BROOKLYN,733,58 STREET,850,65,NB,Q,PERMIT ISSUED - PARTIAL JOB,7/16/2021,HUNG,LEE,PE,58753,N,2/20/2019,4,981606.9922,171540.1993,40.637514378835377,-74.009522955456745
228,3088392,"https://nycdob.github.io/CycloMedia/simple#1016742.8907108,185794.317109481",321904631,1,BROOKLYN,729,LIBERTY AVENUE,3971,51,NB,R,PERMIT ISSUED - ENTIRE JOB/WORK,2/8/2021,PANAGIS,GEORGOPOULOS,RA,15870,N,1/10/2019,4,1016742.891,185794.3171,40.676579565942987,-73.882857066306570
62,2022128,"https://nycdob.github.io/CycloMedia/simple#1021778.59356588,238197.80154115",220696628,1,BRONX,728,ST LAWRENCE AVE,3597,25,NB,Q,PERMIT ISSUED - PARTIAL JOB,2/3/2021,BAKHTIAR,SHAMLOO,PE,70154,N,4/1/2019,4,1021778.594,238197.8015,40.820393813781415,-73.864410012979022
369,2057902,"https://nycdob.github.io/CycloMedia/simple#1022116.19033164,260285.812811226",220694602,1,BRONX,722,EAST 216 STREET,4663,26,NB,Q,PERMIT ISSUED - PARTIAL JOB,8/14/2020,MOHAMMAD,BADALY,RA,19437,N,4/9/2019,8,1022116.19,260285.8128,40.881017344397421,-73.863065534244257
344,2129386,"https://nycdob.github.io/CycloMedia/simple#1035222.73039147,241747.661895484",220696655,1,BRONX,721,CLARENCE AVE.,5480,29,NB,R,PERMIT ISSUED - ENTIRE JOB/WORK,2/26/2021,GERALD,CALIENDO,RA,20241,N,3/27/2019,3,1035222.73,241747.6619,40.83007813,-73.81581116
479,5174402,"https://nycdob.github.io/CycloMedia/simple#923614.096653804,137378.436251149",520332854,1,STATEN ISLAND,717,BLOOMINGDALE ROAD,7079,8,NB,R,PERMIT ISSUED - ENTIRE JOB/WORK,4/13/2021,MICHAEL,SANNA,RA,17154,N,6/28/2019,3,923614.0967,137378.4363,40.54354858,-74.21817017
394,3073527,"https://nycdob.github.io/CycloMedia/simple#1005055.59289122,194103.997340471",321991797,1,BROOKLYN,710,HART STREET,3234,23,NB,R,PERMIT ISSUED - ENTIRE JOB/WORK,3/24/2021,GERALD,CALIENDO,RA,20241,N,5/6/2019,4,1005055.593,194103.9973,40.699422906291375,-73.924966267960045
79,3426674,"https://nycdob.github.io/CycloMedia/simple#1003592.15585747,189133.266796395",321386629,1,BROOKLYN,699,JEFFERSON AVENUE,1651,52,NB,Q,PERMIT ISSUED - PARTIAL JOB,5/27/2021,GERALD,CALIENDO,RA,20241,N,3/5/2019,3,1003592.156,189133.2668,40.68579102,-73.9302597
472,3038424,"https://nycdob.github.io/CycloMedia/simple#1001158.10790406,181042.79478839",321594164,1,BROOKLYN,698,EMPIRE BLVD,1426,23,NB,R,PERMIT ISSUED - ENTIRE JOB/WORK,3/19/2021,DANIEL,BERNSTEIN,RA,16854,N,6/27/2019,8,1001158.108,181042.7948,40.66358948,-73.9390564
145,3426347,"https://nycdob.github.io/CycloMedia/simple#996393.614480302,185156.540169805",321918608,1,BROOKLYN,689,FRANKLIN AVE,1231,14,NB,Q,PERMIT ISSUED - PARTIAL JOB,6/28/2021,SURESH,MANCHANDA,RA,18075,N,1/23/2019,4,996393.6145,185156.5402,40.67488861,-73.95622253
172,2098028,"https://nycdob.github.io/CycloMedia/simple#1009176.04921722,237276.477596387",220716125,1,BRONX,686,EAGLE AVE,2624,29,NB,R,PERMIT ISSUED - ENTIRE JOB/WORK,7/20/2021,HARRIET,NIKAKIS,RA,30899,N,10/16/2019,5,1009176.049,237276.4776,40.817909592133958,-73.909946111712912
554,3120590,"https://nycdob.github.io/CycloMedia/simple#995972.153380975,171429.148989484",321597811,1,BROOKLYN,680,EAST 21ST STREET,5220,57,NB,R,PERMIT ISSUED - ENTIRE JOB/WORK,4/15/2021,NARESH,MAHANGU,PE,89068,N,9/17/2019,6,995972.1534,171429.149,40.637202207111905,-73.957764398455978
82,3046209,"https://nycdob.github.io/CycloMedia/simple#1004073.51217823,188779.185811639",321593085,1,BROOKLYN,674,HANCOCK STREET,1662,18,NB,R,PERMIT ISSUED - ENTIRE JOB/WORK,5/27/2021,ROBERT,BIANCHINI,RA,33616,N,5/10/2019,4,1004073.512,188779.1858,40.684809787652284,-73.928523732477828
600,1061007,"https://nycdob.github.io/CycloMedia/simple#999244.803659812,239003.822894976",121206621,1,MANHATTAN,655,ST. NICHOLAS AVENUE,2050,149,NB,R,PERMIT ISSUED - ENTIRE JOB/WORK,12/10/2020,CHRISTINE,SCHLENDORF,RA,35661,N,11/26/2019,5,999244.8037,239003.8229,40.82268143,-73.94582367
553,2062991,"https://nycdob.github.io/CycloMedia/simple#1022147.04164788,262797.593876898",220712780,1,BRONX,639,E 224 STREET,4826,37,NB,R,PERMIT ISSUED - ENTIRE JOB/WORK,7/31/2020,MOHAMMAD,BADALY,RA,19437,N,9/16/2019,4,1022147.042,262797.5939,40.887911256816132,-73.862939755378619
246,3830309,"https://nycdob.github.io/CycloMedia/simple#989997.686327308,187380.652847558",321385979,1,BROOKLYN,625,WARREN STREET,934,65,NB,R,PERMIT ISSUED - ENTIRE JOB/WORK,7/20/2021,WU (WOODY),CHEN,PE,84996,N,1/24/2019,4,989997.6863,187380.6528,40.68099976,-73.97927856
381,5174573,"https://nycdob.github.io/CycloMedia/simple#958646.799226061,174336.276705399",510113501,1,STATEN ISLAND,620,RICHMOND TERRACE,62,56,NB,R,PERMIT ISSUED - ENTIRE JOB/WORK,1/21/2021,FRANK,RELF,RA,17724,N,4/22/2019,4,958646.7992,174336.2767,40.64516068,-74.09226227
226,3428872,"https://nycdob.github.io/CycloMedia/simple#998884.590469465,170905.512569562",321913836,1,BROOKLYN,620,E 31 STREET,5005,50,NB,Q,PERMIT ISSUED - PARTIAL JOB,11/2/2020,ALIX,MICHEL,RA,24556,N,1/9/2019,5,998884.5905,170905.5126,40.6357606,-73.94727186
250,3426822,"https://nycdob.github.io/CycloMedia/simple#998911.500192553,170908.116895065",321921435,1,BROOKLYN,618,EAST 31 STREET,5005,50,NB,Q,PERMIT ISSUED - PARTIAL JOB,10/26/2020,ALIX,MICHEL,RA,24556,N,1/30/2019,5,998911.5002,170908.1169,40.63576771,-73.9471749
299,3426624,"https://nycdob.github.io/CycloMedia/simple#1004821.89913289,173675.509982303",321911703,1,BROOKLYN,614,EAST 54 STREET,4774,27,NB,R,PERMIT ISSUED - ENTIRE JOB/WORK,10/16/2020,GERALD,CALIENDO,RA,20241,N,2/28/2019,3,1004821.899,173675.51,40.64335185,-73.92587141
298,3426623,"https://nycdob.github.io/CycloMedia/simple#1004840.12842713,173675.509982303",321911696,1,BROOKLYN,612,EAST 54 STREET,4774,26,NB,R,PERMIT ISSUED - ENTIRE JOB/WORK,11/2/2020,GERALD,CALIENDO,RA,20241,N,2/28/2019,3,1004840.128,173675.51,40.64335181,-73.92580572
297,3426622,"https://nycdob.github.io/CycloMedia/simple#1004898.11781247,173679.742585391",321911687,1,BROOKLYN,610,EAST 54 STREET,4774,25,NB,R,PERMIT ISSUED - ENTIRE JOB/WORK,10/16/2020,GERALD,CALIENDO,RA,20241,N,2/28/2019,3,1004898.118,173679.7426,40.64337158,-73.92559814
308,1091649,"https://nycdob.github.io/CycloMedia/simple#990772.309121892,210501.72340323",123756015,1,MANHATTAN,609,SECOND AVENUE,914,29,NB,R,PERMIT ISSUED - ENTIRE JOB/WORK,3/30/2021,FARIBA,MAKOOI,RA,34686,N,3/6/2019,18,990772.3091,210501.7234,40.74446106,-73.97646332
491,3840942,"https://nycdob.github.io/CycloMedia/simple#1001941.05778173,172601.708980307",321977189,1,BROOKLYN,608,EAST 43RD STREET,4976,28,NB,R,PERMIT ISSUED - ENTIRE JOB/WORK,11/6/2020,GERALD,CALIENDO,RA,20241,N,7/11/2019,3,1001941.058,172601.709,40.64041901,-73.93625641
296,3426621,"https://nycdob.github.io/CycloMedia/simple#1004893.88061622,173682.518826559",321911678,1,BROOKLYN,608,EAST 54 STREET,4774,124,NB,R,PERMIT ISSUED - ENTIRE JOB/WORK,10/16/2020,GERALD,CALIENDO,RA,20241,N,2/28/2019,3,1004893.881,173682.5188,40.64337921,-73.9256134
295,3428991,"https://nycdob.github.io/CycloMedia/simple#1004817.61797348,173729.707380474",321911669,1,BROOKLYN,606,EAST 54 STREET,4774,123,NB,R,PERMIT ISSUED - ENTIRE JOB/WORK,10/16/2020,GERALD,CALIENDO,RA,20241,N,2/28/2019,3,1004817.618,173729.7074,40.64350891,-73.92588806
294,3426620,"https://nycdob.github.io/CycloMedia/simple#1004893.86749288,173697.805869475",321911650,1,BROOKLYN,604,EAST 54 STREET,4774,23,NB,R,PERMIT ISSUED - ENTIRE JOB/WORK,11/5/2020,GERALD,CALIENDO,RA,20241,N,2/28/2019,3,1004893.867,173697.8059,40.64342117,-73.9256134
19,1091635,"https://nycdob.github.io/CycloMedia/simple#995643.604169309,236498.776067808",121206685,1,MANHATTAN,600,WEST 125TH STREET,1995,26,NB,R,PERMIT ISSUED - ENTIRE JOB/WORK,7/1/2021,JOHN,CETRA,RA,18861,N,12/4/2019,34,995643.6042,236498.7761,40.81581116,-73.95883942
392,5817752,"https://nycdob.github.io/CycloMedia/simple#929917.264821723,136956.347528398",510113529,1,STATEN ISLAND,595,SINCLAIR AVE,6339,134,NB,R,PERMIT ISSUED - ENTIRE JOB/WORK,3/6/2020,JEFFREY,GEARY,RA,30200,N,5/3/2019,3,929917.2648,136956.3475,40.54243088,-74.19548798
108,3428601,"https://nycdob.github.io/CycloMedia/simple#992630.094448298,187388.366086721",321595403,1,BROOKLYN,595,DEAN STREET,1129,50,NB,R,PERMIT ISSUED - ENTIRE JOB/WORK,6/25/2021,FRANK,FUSARO,RA,21470,N,10/21/2019,29,992630.0944,187388.3661,40.68101883,-73.9697876
571,3428581,"https://nycdob.github.io/CycloMedia/simple#1015352.60379322,184117.160030723",321595831,1,BROOKLYN,581,BELMONT AVENUE,4012,32,NB,Q,PERMIT ISSUED - PARTIAL JOB,1/20/2021,KENNETH,CHURCH JR,RA,32647,N,10/17/2019,3,1015352.604,184117.16,40.67198944,-73.88787842
50,2129393,"https://nycdob.github.io/CycloMedia/simple#1003170.95820905,238099.007447392",210179929,1,BRONX,575,EXTERIOR STREET,2356,2,NB,R,PERMIT ISSUED - ENTIRE JOB/WORK,5/12/2021,SITAL,PATEL,RA,28577,N,2/12/2019,23,1003170.958,238099.0074,40.82019043,-73.93164063
91,3425087,"https://nycdob.github.io/CycloMedia/simple#1023432.76676673,182904.427548066",321386059,1,BROOKLYN,573,EMERALD STREET,4496,15,NB,R,PERMIT ISSUED - ENTIRE JOB/WORK,6/3/2021,MAGNUS,MAGNUSSON,RA,14993,N,1/29/2019,8,1023432.767,182904.4275,40.66862869,-73.85875702
67,1091678,"https://nycdob.github.io/CycloMedia/simple#981896.839340061,204434.42418614",121206523,1,MANHATTAN,561,GREENWICH STREET,598,42,NB,R,PERMIT ISSUED - ENTIRE JOB/WORK,7/22/2021,RICHARD,COOK,RA,18596,N,11/7/2019,16,981896.8393,204434.4242,40.72780991,-74.00849152
373,5105762,"https://nycdob.github.io/CycloMedia/simple#958214.087493047,148003.945183814",520368094,1,STATEN ISLAND,555,MIDLAND AVENUE,3801,8,NB,Q,PERMIT ISSUED - PARTIAL JOB,7/23/2020,ROGER,MORACE,RA,38866,Y,4/11/2019,3,958214.0875,148003.9452,40.572874332648979,-74.093718580573736
146,3428528,"https://nycdob.github.io/CycloMedia/simple#995760.780116051,185295.212792724",321593432,1,BROOKLYN,550,PROSPECT PLACE,1163,23,NB,R,PERMIT ISSUED - ENTIRE JOB/WORK,7/29/2020,YEVGENIY,MEKHTIYEV,RA,38063,N,6/7/2019,7,995760.7801,185295.2128,40.67527008,-73.95850372
